{"type": "FeatureCollection", "features": [{"geometry": {"type": "Point", "coordinates": [-145.41667, -17.05]}, "type": "Feature", "properties": {"nameAirport": "Anaa", "codeIataAirport": "AAA", "codeIcaoAirport": "NTGA", "airportId": 1}}, {"geometry": {"type": "Point", "coordinates": [141.04167, -26.7]}, "type": "Feature", "properties": {"nameAirport": "Arrabury", "codeIataAirport": "AAB", "codeIcaoAirport": "YARY", "airportId": 2}}, {"geometry": {"type": "Point", "coordinates": [33.75, 31.133333]}, "type": "Feature", "properties": {"nameAirport": "El Arish International Airport", "codeIataAirport": "AAC", "codeIcaoAirport": "HEAR", "airportId": 3}}, {"geometry": {"type": "Point", "coordinates": [7.811857, 36.821392]}, "type": "Feature", "properties": {"nameAirport": "Les Salines", "codeIataAirport": "AAE", "codeIcaoAirport": "DABB", "airportId": 4}}, {"geometry": {"type": "Point", "coordinates": [-84.98333, 29.733334]}, "type": "Feature", "properties": {"nameAirport": "Apalachicola Regional", "codeIataAirport": "AAF", "codeIcaoAirport": "KAAF", "airportId": 5}}, {"geometry": {"type": "Point", "coordinates": [-49.79, -24.103611]}, "type": "Feature", "properties": {"nameAirport": "Arapoti", "codeIataAirport": "AAG", "codeIcaoAirport": "SSYA", "airportId": 6}}, {"geometry": {"type": "Point", "coordinates": [6.133333, 50.75]}, "type": "Feature", "properties": {"nameAirport": "Aachen/Merzbruck", "codeIataAirport": "AAH", "codeIcaoAirport": "EDKA", "airportId": 7}}, {"geometry": {"type": "Point", "coordinates": [-46.933334, -12.916667]}, "type": "Feature", "properties": {"nameAirport": "Arraias", "codeIataAirport": "AAI", "codeIcaoAirport": "SWRA", "airportId": 8}}, {"geometry": {"type": "Point", "coordinates": [173.58333, 0.166667]}, "type": "Feature", "properties": {"nameAirport": "Aranuka", "codeIataAirport": "AAK", "codeIcaoAirport": "NGUK", "airportId": 10}}, {"geometry": {"type": "Point", "coordinates": [9.872241, 57.08655]}, "type": "Feature", "properties": {"nameAirport": "Aalborg", "codeIataAirport": "AAL", "codeIcaoAirport": "EKYT", "airportId": 11}}, {"geometry": {"type": "Point", "coordinates": [31.533333, -24.8]}, "type": "Feature", "properties": {"nameAirport": "Mala Mala", "codeIataAirport": "AAM", "codeIcaoAirport": "FAMD", "airportId": 12}}, {"geometry": {"type": "Point", "coordinates": [55.616627, 24.260231]}, "type": "Feature", "properties": {"nameAirport": "Al Ain", "codeIataAirport": "AAN", "codeIcaoAirport": "OMAL", "airportId": 13}}, {"geometry": {"type": "Point", "coordinates": [37.316666, 44.9]}, "type": "Feature", "properties": {"nameAirport": "Anapa", "codeIataAirport": "AAQ", "codeIcaoAirport": "URKA", "airportId": 15}}, {"geometry": {"type": "Point", "coordinates": [10.626351, 56.30823]}, "type": "Feature", "properties": {"nameAirport": "Aarhus Airport", "codeIataAirport": "AAR", "codeIcaoAirport": "EKAH", "airportId": 16}}, {"geometry": {"type": "Point", "coordinates": [88.08444, 47.750362]}, "type": "Feature", "properties": {"nameAirport": "Altay", "codeIataAirport": "AAT", "codeIcaoAirport": "ZWAT", "airportId": 18}}, {"geometry": {"type": "Point", "coordinates": [-46.92917, -19.568056]}, "type": "Feature", "properties": {"nameAirport": "Araxa", "codeIataAirport": "AAX", "codeIcaoAirport": "SBAX", "airportId": 22}}, {"geometry": {"type": "Point", "coordinates": [52.173256, 16.19596]}, "type": "Feature", "properties": {"nameAirport": "Al Ghaydah", "codeIataAirport": "AAY", "codeIcaoAirport": "OYGD", "airportId": 23}}, {"geometry": {"type": "Point", "coordinates": [-91.5, 14.87]}, "type": "Feature", "properties": {"nameAirport": "Quetzaltenango", "codeIataAirport": "AAZ", "codeIcaoAirport": "MGQZ", "airportId": 24}}, {"geometry": {"type": "Point", "coordinates": [91.5, 53.716667]}, "type": "Feature", "properties": {"nameAirport": "Abakan", "codeIataAirport": "ABA", "codeIcaoAirport": "UNAA", "airportId": 25}}, {"geometry": {"type": "Point", "coordinates": [-1.283333, 51.666668]}, "type": "Feature", "properties": {"nameAirport": "RAF Station", "codeIataAirport": "ABB", "codeIcaoAirport": "EGUD", "airportId": 26}}, {"geometry": {"type": "Point", "coordinates": [-1.863333, 38.948334]}, "type": "Feature", "properties": {"nameAirport": "Los Llanos", "codeIataAirport": "ABC", "codeIcaoAirport": "LEAB", "airportId": 27}}, {"geometry": {"type": "Point", "coordinates": [48.226597, 30.363905]}, "type": "Feature", "properties": {"nameAirport": "Abadan", "codeIataAirport": "ABD", "codeIcaoAirport": "OIAA", "airportId": 28}}, {"geometry": {"type": "Point", "coordinates": [-75.434364, 40.651573]}, "type": "Feature", "properties": {"nameAirport": "Lehigh Valley International", "codeIataAirport": "ABE", "codeIcaoAirport": "KABE", "airportId": 29}}, {"geometry": {"type": "Point", "coordinates": [146.63333, -23.65]}, "type": "Feature", "properties": {"nameAirport": "Alpha", "codeIataAirport": "ABH", "codeIcaoAirport": "YAPH", "airportId": 32}}, {"geometry": {"type": "Point", "coordinates": [-99.679726, 32.409443]}, "type": "Feature", "properties": {"nameAirport": "Municipal", "codeIataAirport": "ABI", "codeIcaoAirport": "KABI", "airportId": 33}}, {"geometry": {"type": "Point", "coordinates": [-3.933015, 5.254879]}, "type": "Feature", "properties": {"nameAirport": "Felix Houphouet Boigny", "codeIataAirport": "ABJ", "codeIcaoAirport": "DIAP", "airportId": 34}}, {"geometry": {"type": "Point", "coordinates": [44.26611, 6.733889]}, "type": "Feature", "properties": {"nameAirport": "Kabri Dar", "codeIataAirport": "ABK", "codeIcaoAirport": "HADK", "airportId": 35}}, {"geometry": {"type": "Point", "coordinates": [-157.84584, 67.0875]}, "type": "Feature", "properties": {"nameAirport": "Ambler", "codeIataAirport": "ABL", "codeIcaoAirport": "PAFM", "airportId": 36}}, {"geometry": {"type": "Point", "coordinates": [142.45033, -10.942619]}, "type": "Feature", "properties": {"nameAirport": "Bamaga Injinoo", "codeIataAirport": "ABM", "codeIcaoAirport": "YBAM", "airportId": 37}}, {"geometry": {"type": "Point", "coordinates": [-3.216667, 5.433333]}, "type": "Feature", "properties": {"nameAirport": "Aboisso", "codeIataAirport": "ABO", "codeIcaoAirport": "DIAO", "airportId": 39}}, {"geometry": {"type": "Point", "coordinates": [-106.617195, 35.049625]}, "type": "Feature", "properties": {"nameAirport": "Albuquerque International", "codeIataAirport": "ABQ", "codeIcaoAirport": "KABQ", "airportId": 41}}, {"geometry": {"type": "Point", "coordinates": [-98.42611, 45.4525]}, "type": "Feature", "properties": {"nameAirport": "Municipal", "codeIataAirport": "ABR", "codeIcaoAirport": "KABR", "airportId": 42}}, {"geometry": {"type": "Point", "coordinates": [31.609774, 22.367567]}, "type": "Feature", "properties": {"nameAirport": "Abu Simbel", "codeIataAirport": "ABS", "codeIcaoAirport": "HEBL", "airportId": 43}}, {"geometry": {"type": "Point", "coordinates": [41.64002, 20.29401]}, "type": "Feature", "properties": {"nameAirport": "Al-Aqiq", "codeIataAirport": "ABT", "codeIcaoAirport": "OEBA", "airportId": 44}}, {"geometry": {"type": "Point", "coordinates": [124.88333, -9.133333]}, "type": "Feature", "properties": {"nameAirport": "Atambua", "codeIataAirport": "ABU", "codeIcaoAirport": "WATA", "airportId": 45}}, {"geometry": {"type": "Point", "coordinates": [7.270447, 9.004614]}, "type": "Feature", "properties": {"nameAirport": "Nnamdi Azikiwe International Airport", "codeIataAirport": "ABV", "codeIcaoAirport": "DNAA", "airportId": 46}}, {"geometry": {"type": "Point", "coordinates": [146.95453, -36.069626]}, "type": "Feature", "properties": {"nameAirport": "Albury", "codeIataAirport": "ABX", "codeIcaoAirport": "YMAY", "airportId": 48}}, {"geometry": {"type": "Point", "coordinates": [-84.19611, 31.532223]}, "type": "Feature", "properties": {"nameAirport": "Dougherty County", "codeIataAirport": "ABY", "codeIcaoAirport": "KABY", "airportId": 49}}, {"geometry": {"type": "Point", "coordinates": [-2.204186, 57.200253]}, "type": "Feature", "properties": {"nameAirport": "Dyce", "codeIataAirport": "ABZ", "codeIcaoAirport": "EGPD", "airportId": 50}}, {"geometry": {"type": "Point", "coordinates": [-99.75459, 16.762403]}, "type": "Feature", "properties": {"nameAirport": "General Juan N. Alvarez International", "codeIataAirport": "ACA", "codeIcaoAirport": "MMAA", "airportId": 51}}, {"geometry": {"type": "Point", "coordinates": [-85.21667, 44.983334]}, "type": "Feature", "properties": {"nameAirport": "Antrim County", "codeIataAirport": "ACB", "codeIcaoAirport": "KACB", "airportId": 52}}, {"geometry": {"type": "Point", "coordinates": [-0.171769, 5.60737]}, "type": "Feature", "properties": {"nameAirport": "Kotoka", "codeIataAirport": "ACC", "codeIcaoAirport": "DGAA", "airportId": 53}}, {"geometry": {"type": "Point", "coordinates": [-77.3, 8.516667]}, "type": "Feature", "properties": {"nameAirport": "Acandi", "codeIataAirport": "ACD", "codeIcaoAirport": "SKAD", "airportId": 54}}, {"geometry": {"type": "Point", "coordinates": [-13.609059, 28.950668]}, "type": "Feature", "properties": {"nameAirport": "Lanzarote", "codeIataAirport": "ACE", "codeIcaoAirport": "GCRR", "airportId": 55}}, {"geometry": {"type": "Point", "coordinates": [9.566667, 47.483334]}, "type": "Feature", "properties": {"nameAirport": "Altenrhein", "codeIataAirport": "ACH", "codeIcaoAirport": "LSZR", "airportId": 56}}, {"geometry": {"type": "Point", "coordinates": [-2.215369, 49.709347]}, "type": "Feature", "properties": {"nameAirport": "The Blaye", "codeIataAirport": "ACI", "codeIcaoAirport": "EGJA", "airportId": 57}}, {"geometry": {"type": "Point", "coordinates": [80.38333, 8.35]}, "type": "Feature", "properties": {"nameAirport": "Anuradhapura", "codeIataAirport": "ACJ", "codeIcaoAirport": "VCCA", "airportId": 58}}, {"geometry": {"type": "Point", "coordinates": [-70.05972, 41.256668]}, "type": "Feature", "properties": {"nameAirport": "Nantucket Memorial", "codeIataAirport": "ACK", "codeIcaoAirport": "KACK", "airportId": 59}}, {"geometry": {"type": "Point", "coordinates": [-100.916664, 29.3]}, "type": "Feature", "properties": {"nameAirport": "International", "codeIataAirport": "ACN", "codeIcaoAirport": "MMCC", "airportId": 62}}, {"geometry": {"type": "Point", "coordinates": [46.145115, 37.347244]}, "type": "Feature", "properties": {"nameAirport": "Sahand", "codeIataAirport": "ACP", "codeIcaoAirport": "OITM", "airportId": 63}}, {"geometry": {"type": "Point", "coordinates": [-72.3, -0.383333]}, "type": "Feature", "properties": {"nameAirport": "Araracuara", "codeIataAirport": "ACR", "codeIcaoAirport": "SKAC", "airportId": 64}}, {"geometry": {"type": "Point", "coordinates": [90.566666, 56.266666]}, "type": "Feature", "properties": {"nameAirport": "Achinsk", "codeIataAirport": "ACS", "codeIcaoAirport": "UNKS", "airportId": 65}}, {"geometry": {"type": "Point", "coordinates": [-97.22321, 31.609133]}, "type": "Feature", "properties": {"nameAirport": "Municipal", "codeIataAirport": "ACT", "codeIcaoAirport": "KACT", "airportId": 66}}, {"geometry": {"type": "Point", "coordinates": [-124.106926, 40.970913]}, "type": "Feature", "properties": {"nameAirport": "Arcata", "codeIataAirport": "ACV", "codeIcaoAirport": "KACV", "airportId": 68}}, {"geometry": {"type": "Point", "coordinates": [-74.572235, 39.450703]}, "type": "Feature", "properties": {"nameAirport": "Atlantic City International", "codeIataAirport": "ACY", "codeIcaoAirport": "KACY", "airportId": 70}}, {"geometry": {"type": "Point", "coordinates": [61.542244, 31.087694]}, "type": "Feature", "properties": {"nameAirport": "Zabol Airport", "codeIataAirport": "ACZ", "codeIcaoAirport": "OIZB", "airportId": 71}}, {"geometry": {"type": "Point", "coordinates": [35.29736, 36.98503]}, "type": "Feature", "properties": {"nameAirport": "Adana", "codeIataAirport": "ADA", "codeIcaoAirport": "LTAF", "airportId": 72}}, {"geometry": {"type": "Point", "coordinates": [27.147594, 38.294403]}, "type": "Feature", "properties": {"nameAirport": "Adnan Menderes Airport", "codeIataAirport": "ADB", "codeIcaoAirport": "LTBJ", "airportId": 73}}, {"geometry": {"type": "Point", "coordinates": [38.7959, 8.983759]}, "type": "Feature", "properties": {"nameAirport": "Bole International", "codeIataAirport": "ADD", "codeIcaoAirport": "HAAB", "airportId": 75}}, {"geometry": {"type": "Point", "coordinates": [45.037537, 12.826116]}, "type": "Feature", "properties": {"nameAirport": "International", "codeIataAirport": "ADE", "codeIcaoAirport": "OYAA", "airportId": 76}}, {"geometry": {"type": "Point", "coordinates": [38.266666, 37.75]}, "type": "Feature", "properties": {"nameAirport": "Adiyaman", "codeIataAirport": "ADF", "codeIcaoAirport": "LTCP", "airportId": 77}}, {"geometry": {"type": "Point", "coordinates": [-84.03333, 41.9]}, "type": "Feature", "properties": {"nameAirport": "Lenawee County", "codeIataAirport": "ADG", "codeIcaoAirport": "KADG", "airportId": 78}}, {"geometry": {"type": "Point", "coordinates": [125.4, 58.6]}, "type": "Feature", "properties": {"nameAirport": "Aldan", "codeIataAirport": "ADH", "codeIcaoAirport": "UEEA", "airportId": 79}}, {"geometry": {"type": "Point", "coordinates": [15.0, -22.4]}, "type": "Feature", "properties": {"nameAirport": "Arandis", "codeIataAirport": "ADI", "codeIcaoAirport": "FYAR", "airportId": 80}}, {"geometry": {"type": "Point", "coordinates": [35.98277, 31.97533]}, "type": "Feature", "properties": {"nameAirport": "Marka International Airport", "codeIataAirport": "ADJ", "codeIcaoAirport": "OJAM", "airportId": 81}}, {"geometry": {"type": "Point", "coordinates": [-176.64473, 51.88278]}, "type": "Feature", "properties": {"nameAirport": "Adak Island Ns", "codeIataAirport": "ADK", "codeIcaoAirport": "PADK", "airportId": 82}}, {"geometry": {"type": "Point", "coordinates": [138.53735, -34.938175]}, "type": "Feature", "properties": {"nameAirport": "Adelaide International Airport", "codeIataAirport": "ADL", "codeIcaoAirport": "YPAD", "airportId": 83}}, {"geometry": {"type": "Point", "coordinates": [-97.01945, 34.303055]}, "type": "Feature", "properties": {"nameAirport": "Ardmore Municipal Airport", "codeIataAirport": "ADM", "codeIcaoAirport": "KADM", "airportId": 84}}, {"geometry": {"type": "Point", "coordinates": [137.15, -31.016666]}, "type": "Feature", "properties": {"nameAirport": "Andamooka", "codeIataAirport": "ADO", "codeIcaoAirport": "YAMK", "airportId": 86}}, {"geometry": {"type": "Point", "coordinates": [-152.51297, 57.755276]}, "type": "Feature", "properties": {"nameAirport": "Kodiak Airport", "codeIataAirport": "ADQ", "codeIcaoAirport": "PADQ", "airportId": 88}}, {"geometry": {"type": "Point", "coordinates": [-79.566666, 33.45]}, "type": "Feature", "properties": {"nameAirport": "Andrews", "codeIataAirport": "ADR", "codeIcaoAirport": "KPHH", "airportId": 89}}, {"geometry": {"type": "Point", "coordinates": [-97.3, 32.783333]}, "type": "Feature", "properties": {"nameAirport": "Addison Airport", "codeIataAirport": "ADS", "codeIcaoAirport": "KADS", "airportId": 90}}, {"geometry": {"type": "Point", "coordinates": [-96.666664, 34.8]}, "type": "Feature", "properties": {"nameAirport": "Ada Municipal", "codeIataAirport": "ADT", "codeIcaoAirport": "KADH", "airportId": 91}}, {"geometry": {"type": "Point", "coordinates": [48.42125, 38.323826]}, "type": "Feature", "properties": {"nameAirport": "Ardabil", "codeIataAirport": "ADU", "codeIcaoAirport": "OITL", "airportId": 92}}, {"geometry": {"type": "Point", "coordinates": [-2.866667, 56.36667]}, "type": "Feature", "properties": {"nameAirport": "Leuchars", "codeIataAirport": "ADX", "codeIcaoAirport": "EGQL", "airportId": 94}}, {"geometry": {"type": "Point", "coordinates": [29.05, -22.666668]}, "type": "Feature", "properties": {"nameAirport": "Alldays", "codeIataAirport": "ADY", "codeIcaoAirport": "FAAL", "airportId": 95}}, {"geometry": {"type": "Point", "coordinates": [-81.70221, 12.586047]}, "type": "Feature", "properties": {"nameAirport": "San Andres Island", "codeIataAirport": "ADZ", "codeIcaoAirport": "SKSP", "airportId": 96}}, {"geometry": {"type": "Point", "coordinates": [173.85, 0.483333]}, "type": "Feature", "properties": {"nameAirport": "Abemama Atoll", "codeIataAirport": "AEA", "codeIcaoAirport": "NGTB", "airportId": 97}}, {"geometry": {"type": "Point", "coordinates": [99.416664, 1.399722]}, "type": "Feature", "properties": {"nameAirport": "Aek Godang", "codeIataAirport": "AEG", "codeIcaoAirport": "WIME", "airportId": 101}}, {"geometry": {"type": "Point", "coordinates": [20.850834, 13.851389]}, "type": "Feature", "properties": {"nameAirport": "Ab\u00e9ch\u00e9", "codeIataAirport": "AEH", "codeIcaoAirport": "FTTC", "airportId": 102}}, {"geometry": {"type": "Point", "coordinates": [-93.36667, 43.65]}, "type": "Feature", "properties": {"nameAirport": "Albert Lea", "codeIataAirport": "AEL", "codeIcaoAirport": "KAEL", "airportId": 105}}, {"geometry": {"type": "Point", "coordinates": [-9.635556, 16.709167]}, "type": "Feature", "properties": {"nameAirport": "Aioun El Atrouss", "codeIataAirport": "AEO", "codeIcaoAirport": "GQNA", "airportId": 106}}, {"geometry": {"type": "Point", "coordinates": [-58.41667, -34.55622]}, "type": "Feature", "properties": {"nameAirport": "Aeroparque Jorge Newbery", "codeIataAirport": "AEP", "codeIcaoAirport": "SABE", "airportId": 107}}, {"geometry": {"type": "Point", "coordinates": [39.941105, 43.44884]}, "type": "Feature", "properties": {"nameAirport": "Sochi/Adler International Airport", "codeIataAirport": "AER", "codeIcaoAirport": "URSS", "airportId": 108}}, {"geometry": {"type": "Point", "coordinates": [6.116605, 62.559643]}, "type": "Feature", "properties": {"nameAirport": "Vigra", "codeIataAirport": "AES", "codeIcaoAirport": "ENAL", "airportId": 109}}, {"geometry": {"type": "Point", "coordinates": [-152.65834, 66.56167]}, "type": "Feature", "properties": {"nameAirport": "Allakaket", "codeIataAirport": "AET", "codeIcaoAirport": "PFAL", "airportId": 110}}, {"geometry": {"type": "Point", "coordinates": [55.041668, 25.8875]}, "type": "Feature", "properties": {"nameAirport": "Abu Musa", "codeIataAirport": "AEU", "codeIcaoAirport": "OIBA", "airportId": 111}}, {"geometry": {"type": "Point", "coordinates": [-92.53958, 31.321268]}, "type": "Feature", "properties": {"nameAirport": "Alexandria International", "codeIataAirport": "AEX", "codeIcaoAirport": "KAEX", "airportId": 112}}, {"geometry": {"type": "Point", "coordinates": [-18.075068, 65.654564]}, "type": "Feature", "properties": {"nameAirport": "Akureyri", "codeIataAirport": "AEY", "codeIcaoAirport": "BIAR", "airportId": 113}}, {"geometry": {"type": "Point", "coordinates": [-68.40056, -34.58917]}, "type": "Feature", "properties": {"nameAirport": "San Rafael", "codeIataAirport": "AFA", "codeIcaoAirport": "SAMR", "airportId": 114}}, {"geometry": {"type": "Point", "coordinates": [26.883333, -33.583332]}, "type": "Feature", "properties": {"nameAirport": "Port Alfred", "codeIataAirport": "AFD", "codeIcaoAirport": "FAPA", "airportId": 115}}, {"geometry": {"type": "Point", "coordinates": [-104.7, 38.833332]}, "type": "Feature", "properties": {"nameAirport": "USAF Academy Airstrip", "codeIataAirport": "AFF", "codeIcaoAirport": "KAFF", "airportId": 116}}, {"geometry": {"type": "Point", "coordinates": [-75.066666, 6.916667]}, "type": "Feature", "properties": {"nameAirport": "Amalfi", "codeIataAirport": "AFI", "codeIcaoAirport": "SKAM", "airportId": 117}}, {"geometry": {"type": "Point", "coordinates": [-56.104767, -9.872456]}, "type": "Feature", "properties": {"nameAirport": "Alta Floresta", "codeIataAirport": "AFL", "codeIcaoAirport": "SBAT", "airportId": 119}}, {"geometry": {"type": "Point", "coordinates": [-72.066666, 42.833332]}, "type": "Feature", "properties": {"nameAirport": "Municipal", "codeIataAirport": "AFN", "codeIcaoAirport": "KAFN", "airportId": 120}}, {"geometry": {"type": "Point", "coordinates": [-110.933334, 42.733334]}, "type": "Feature", "properties": {"nameAirport": "Municipal", "codeIataAirport": "AFO", "codeIcaoAirport": "KAFO", "airportId": 121}}, {"geometry": {"type": "Point", "coordinates": [64.233055, 41.61361]}, "type": "Feature", "properties": {"nameAirport": "Zarafshan", "codeIataAirport": "AFS", "codeIcaoAirport": "UTSN", "airportId": 123}}, {"geometry": {"type": "Point", "coordinates": [160.85, -9.2]}, "type": "Feature", "properties": {"nameAirport": "Afutara Aerodrome", "codeIataAirport": "AFT", "codeIcaoAirport": "AGAF", "airportId": 124}}, {"geometry": {"type": "Point", "coordinates": [-97.316666, 32.986668]}, "type": "Feature", "properties": {"nameAirport": "Fort Worth Alliance", "codeIataAirport": "AFW", "codeIcaoAirport": "KAFW", "airportId": 125}}, {"geometry": {"type": "Point", "coordinates": [30.6, 38.733334]}, "type": "Feature", "properties": {"nameAirport": "Afyon", "codeIataAirport": "AFY", "codeIcaoAirport": "LTAH", "airportId": 126}}, {"geometry": {"type": "Point", "coordinates": [57.60332, 36.171513]}, "type": "Feature", "properties": {"nameAirport": "Sabzevar", "codeIataAirport": "AFZ", "codeIcaoAirport": "OIMS", "airportId": 127}}, {"geometry": {"type": "Point", "coordinates": [-9.555895, 30.378326]}, "type": "Feature", "properties": {"nameAirport": "Agadir Almassira", "codeIataAirport": "AGA", "codeIcaoAirport": "GMAD", "airportId": 128}}, {"geometry": {"type": "Point", "coordinates": [10.931667, 48.425278]}, "type": "Feature", "properties": {"nameAirport": "Augsburg - Muehlhausen", "codeIataAirport": "AGB", "codeIcaoAirport": "EDMA", "airportId": 129}}, {"geometry": {"type": "Point", "coordinates": [-79.93, 40.35472]}, "type": "Feature", "properties": {"nameAirport": "Allegheny County", "codeIataAirport": "AGC", "codeIcaoAirport": "KAGC", "airportId": 130}}, {"geometry": {"type": "Point", "coordinates": [0.598611, 44.17361]}, "type": "Feature", "properties": {"nameAirport": "La Garenne", "codeIataAirport": "AGF", "codeIcaoAirport": "LFBA", "airportId": 133}}, {"geometry": {"type": "Point", "coordinates": [12.8625, 56.293056]}, "type": "Feature", "properties": {"nameAirport": "Angelholm", "codeIataAirport": "AGH", "codeIcaoAirport": "ESDB", "airportId": 135}}, {"geometry": {"type": "Point", "coordinates": [-56.833332, 5.833333]}, "type": "Feature", "properties": {"nameAirport": "Wageningen", "codeIataAirport": "AGI", "codeIcaoAirport": "SMWA", "airportId": 136}}, {"geometry": {"type": "Point", "coordinates": [127.23805, 26.589722]}, "type": "Feature", "properties": {"nameAirport": "Aguni", "codeIataAirport": "AGJ", "codeIcaoAirport": "RORA", "airportId": 137}}, {"geometry": {"type": "Point", "coordinates": [149.15527, -9.340278]}, "type": "Feature", "properties": {"nameAirport": "Wanigela", "codeIataAirport": "AGL", "codeIcaoAirport": "AYWG", "airportId": 139}}, {"geometry": {"type": "Point", "coordinates": [-37.683334, 65.6]}, "type": "Feature", "properties": {"nameAirport": "Tasiilaq", "codeIataAirport": "AGM", "codeIcaoAirport": "BGAM", "airportId": 140}}, {"geometry": {"type": "Point", "coordinates": [-134.58333, 57.503887]}, "type": "Feature", "properties": {"nameAirport": "Angoon", "codeIataAirport": "AGN", "codeIcaoAirport": "PAGN", "airportId": 141}}, {"geometry": {"type": "Point", "coordinates": [-93.23333, 33.266666]}, "type": "Feature", "properties": {"nameAirport": "Municipal", "codeIataAirport": "AGO", "codeIcaoAirport": "KAGO", "airportId": 142}}, {"geometry": {"type": "Point", "coordinates": [-4.489616, 36.675182]}, "type": "Feature", "properties": {"nameAirport": "Pablo Ruiz Picasso", "codeIataAirport": "AGP", "codeIcaoAirport": "LEMG", "airportId": 143}}, {"geometry": {"type": "Point", "coordinates": [77.962776, 27.158333]}, "type": "Feature", "properties": {"nameAirport": "Kheria", "codeIataAirport": "AGR", "codeIcaoAirport": "VIAG", "airportId": 144}}, {"geometry": {"type": "Point", "coordinates": [-81.973434, 33.373665]}, "type": "Feature", "properties": {"nameAirport": "Bush Field", "codeIataAirport": "AGS", "codeIcaoAirport": "KAGS", "airportId": 145}}, {"geometry": {"type": "Point", "coordinates": [-54.833332, -25.5]}, "type": "Feature", "properties": {"nameAirport": "Alejo Garcia", "codeIataAirport": "AGT", "codeIcaoAirport": "SGES", "airportId": 146}}, {"geometry": {"type": "Point", "coordinates": [-102.31374, 21.701416]}, "type": "Feature", "properties": {"nameAirport": "Aguascalients", "codeIataAirport": "AGU", "codeIcaoAirport": "MMAS", "airportId": 147}}, {"geometry": {"type": "Point", "coordinates": [-69.23333, 9.552222]}, "type": "Feature", "properties": {"nameAirport": "Acarigua", "codeIataAirport": "AGV", "codeIcaoAirport": "SVAC", "airportId": 148}}, {"geometry": {"type": "Point", "coordinates": [72.17987, 10.828967]}, "type": "Feature", "properties": {"nameAirport": "Agatti Island", "codeIataAirport": "AGX", "codeIcaoAirport": "VOAT", "airportId": 150}}, {"geometry": {"type": "Point", "coordinates": [18.85, -29.05]}, "type": "Feature", "properties": {"nameAirport": "Aggeneys", "codeIataAirport": "AGZ", "codeIcaoAirport": "FAAG", "airportId": 151}}, {"geometry": {"type": "Point", "coordinates": [42.657574, 18.23429]}, "type": "Feature", "properties": {"nameAirport": "Abha", "codeIataAirport": "AHB", "codeIcaoAirport": "OEAB", "airportId": 153}}, {"geometry": {"type": "Point", "coordinates": [-97.13333, 34.166668]}, "type": "Feature", "properties": {"nameAirport": "Downtown", "codeIataAirport": "AHD", "codeIcaoAirport": "K1F0", "airportId": 155}}, {"geometry": {"type": "Point", "coordinates": [-146.25694, -14.428056]}, "type": "Feature", "properties": {"nameAirport": "Ahe Airport", "codeIataAirport": "AHE", "codeIcaoAirport": "NTHE", "airportId": 156}}, {"geometry": {"type": "Point", "coordinates": [-92.35, 45.3]}, "type": "Feature", "properties": {"nameAirport": "Municipal", "codeIataAirport": "AHH", "codeIcaoAirport": "KAHH", "airportId": 158}}, {"geometry": {"type": "Point", "coordinates": [128.91667, -3.333333]}, "type": "Feature", "properties": {"nameAirport": "Amahai", "codeIataAirport": "AHI", "codeIcaoAirport": "WAPA", "airportId": 159}}, {"geometry": {"type": "Point", "coordinates": [-59.316666, 2.483333]}, "type": "Feature", "properties": {"nameAirport": "Aishalton", "codeIataAirport": "AHL", "codeIcaoAirport": "SYAH", "airportId": 160}}, {"geometry": {"type": "Point", "coordinates": [-83.32472, 33.95195]}, "type": "Feature", "properties": {"nameAirport": "Athens-Ben Epps", "codeIataAirport": "AHN", "codeIcaoAirport": "KAHN", "airportId": 162}}, {"geometry": {"type": "Point", "coordinates": [8.295891, 40.630405]}, "type": "Feature", "properties": {"nameAirport": "Fertilia", "codeIataAirport": "AHO", "codeIcaoAirport": "LIEA", "airportId": 163}}, {"geometry": {"type": "Point", "coordinates": [-84.425, 15.441667]}, "type": "Feature", "properties": {"nameAirport": "Ahuas", "codeIataAirport": "AHS", "codeIcaoAirport": "MHAH", "airportId": 164}}, {"geometry": {"type": "Point", "coordinates": [-3.836944, 35.17972]}, "type": "Feature", "properties": {"nameAirport": "Charif Al Idrissi", "codeIataAirport": "AHU", "codeIcaoAirport": "GMTA", "airportId": 165}}, {"geometry": {"type": "Point", "coordinates": [6.083333, 45.083332]}, "type": "Feature", "properties": {"nameAirport": "Alpe D Huez", "codeIataAirport": "AHZ", "codeIcaoAirport": "LFHU", "airportId": 168}}, {"geometry": {"type": "Point", "coordinates": [-102.80666, 42.051666]}, "type": "Feature", "properties": {"nameAirport": "Alliance", "codeIataAirport": "AIA", "codeIcaoAirport": "KAIA", "airportId": 169}}, {"geometry": {"type": "Point", "coordinates": [-85.683334, 40.166668]}, "type": "Feature", "properties": {"nameAirport": "Municipal", "codeIataAirport": "AID", "codeIcaoAirport": "KAID", "airportId": 172}}, {"geometry": {"type": "Point", "coordinates": [-50.416668, -22.666668]}, "type": "Feature", "properties": {"nameAirport": "Assis", "codeIataAirport": "AIF", "codeIcaoAirport": "SNAX", "airportId": 174}}, {"geometry": {"type": "Point", "coordinates": [23.25, 6.516667]}, "type": "Feature", "properties": {"nameAirport": "Yalinga", "codeIataAirport": "AIG", "codeIcaoAirport": "FEFY", "airportId": 175}}, {"geometry": {"type": "Point", "coordinates": [42.716667, 11.15]}, "type": "Feature", "properties": {"nameAirport": "Alisabieh", "codeIataAirport": "AII", "codeIcaoAirport": "HDAS", "airportId": 177}}, {"geometry": {"type": "Point", "coordinates": [-81.71667, 33.566666]}, "type": "Feature", "properties": {"nameAirport": "Municipal", "codeIataAirport": "AIK", "codeIcaoAirport": "KAIK", "airportId": 178}}, {"geometry": {"type": "Point", "coordinates": [-160.03334, 70.63333]}, "type": "Feature", "properties": {"nameAirport": "Wainwright", "codeIataAirport": "AIN", "codeIcaoAirport": "PAWT", "airportId": 181}}, {"geometry": {"type": "Point", "coordinates": [-95.01667, 41.4]}, "type": "Feature", "properties": {"nameAirport": "Municipal", "codeIataAirport": "AIO", "codeIcaoAirport": "KAIO", "airportId": 182}}, {"geometry": {"type": "Point", "coordinates": [-59.38333, -10.25]}, "type": "Feature", "properties": {"nameAirport": "Aripuana", "codeIataAirport": "AIR", "codeIcaoAirport": "SWRP", "airportId": 184}}, {"geometry": {"type": "Point", "coordinates": [176.83333, -2.65]}, "type": "Feature", "properties": {"nameAirport": "Arorae Island", "codeIataAirport": "AIS", "codeIcaoAirport": "NGTR", "airportId": 185}}, {"geometry": {"type": "Point", "coordinates": [-159.767, -18.829443]}, "type": "Feature", "properties": {"nameAirport": "Aitutaki", "codeIataAirport": "AIT", "codeIcaoAirport": "NCAI", "airportId": 186}}, {"geometry": {"type": "Point", "coordinates": [-158.1, -20.033333]}, "type": "Feature", "properties": {"nameAirport": "Atiu Island", "codeIataAirport": "AIU", "codeIcaoAirport": "NCAT", "airportId": 187}}, {"geometry": {"type": "Point", "coordinates": [-88.15, 33.13333]}, "type": "Feature", "properties": {"nameAirport": "George Downer", "codeIataAirport": "AIV", "codeIcaoAirport": "KAIV", "airportId": 188}}, {"geometry": {"type": "Point", "coordinates": [-92.54722, 38.09833]}, "type": "Feature", "properties": {"nameAirport": "Lee C Fine Memorial", "codeIataAirport": "AIZ", "codeIcaoAirport": "KAIZ", "airportId": 190}}, {"geometry": {"type": "Point", "coordinates": [8.794013, 41.91987]}, "type": "Feature", "properties": {"nameAirport": "Campo Dell Oro", "codeIataAirport": "AJA", "codeIcaoAirport": "LFKJ", "airportId": 191}}, {"geometry": {"type": "Point", "coordinates": [40.101486, 29.788668]}, "type": "Feature", "properties": {"nameAirport": "Jouf", "codeIataAirport": "AJF", "codeIcaoAirport": "OESK", "airportId": 192}}, {"geometry": {"type": "Point", "coordinates": [43.025, 39.65]}, "type": "Feature", "properties": {"nameAirport": "Agri", "codeIataAirport": "AJI", "codeIcaoAirport": "LTCO", "airportId": 193}}, {"geometry": {"type": "Point", "coordinates": [-14.374444, 19.730556]}, "type": "Feature", "properties": {"nameAirport": "Akjoujt", "codeIataAirport": "AJJ", "codeIcaoAirport": "GQNJ", "airportId": 194}}, {"geometry": {"type": "Point", "coordinates": [49.833332, 34.13333]}, "type": "Feature", "properties": {"nameAirport": "Araak", "codeIataAirport": "AJK", "codeIcaoAirport": "OIHR", "airportId": 195}}, {"geometry": {"type": "Point", "coordinates": [92.62482, 23.838985]}, "type": "Feature", "properties": {"nameAirport": "Aizawl", "codeIataAirport": "AJL", "codeIcaoAirport": "VEAZ", "airportId": 196}}, {"geometry": {"type": "Point", "coordinates": [44.42972, -12.126389]}, "type": "Feature", "properties": {"nameAirport": "Ouani", "codeIataAirport": "AJN", "codeIcaoAirport": "FMCV", "airportId": 197}}, {"geometry": {"type": "Point", "coordinates": [19.285557, 65.59139]}, "type": "Feature", "properties": {"nameAirport": "Arvidsjaur", "codeIataAirport": "AJR", "codeIcaoAirport": "ESNX", "airportId": 198}}, {"geometry": {"type": "Point", "coordinates": [-37.072792, -10.987206]}, "type": "Feature", "properties": {"nameAirport": "Santa Maria", "codeIataAirport": "AJU", "codeIcaoAirport": "SBAR", "airportId": 200}}, {"geometry": {"type": "Point", "coordinates": [7.993056, 16.964167]}, "type": "Feature", "properties": {"nameAirport": "Agades", "codeIataAirport": "AJY", "codeIcaoAirport": "DRZA", "airportId": 201}}, {"geometry": {"type": "Point", "coordinates": [108.936, 32.7091]}, "type": "Feature", "properties": {"nameAirport": "Ankang", "codeIataAirport": "AKA", "codeIcaoAirport": "ZLAK", "airportId": 202}}, {"geometry": {"type": "Point", "coordinates": [-174.20084, 52.21722]}, "type": "Feature", "properties": {"nameAirport": "Atka", "codeIataAirport": "AKB", "codeIcaoAirport": "PAAK", "airportId": 203}}, {"geometry": {"type": "Point", "coordinates": [-81.46778, 41.04]}, "type": "Feature", "properties": {"nameAirport": "Fulton International", "codeIataAirport": "AKC", "codeIcaoAirport": "KAKR", "airportId": 204}}, {"geometry": {"type": "Point", "coordinates": [77.083336, 20.666668]}, "type": "Feature", "properties": {"nameAirport": "Akola", "codeIataAirport": "AKD", "codeIcaoAirport": "VAAK", "airportId": 205}}, {"geometry": {"type": "Point", "coordinates": [23.333332, 24.2]}, "type": "Feature", "properties": {"nameAirport": "Kufrah", "codeIataAirport": "AKF", "codeIcaoAirport": "HLKF", "airportId": 207}}, {"geometry": {"type": "Point", "coordinates": [47.580555, 24.063334]}, "type": "Feature", "properties": {"nameAirport": "Prince Sultan Air Base", "codeIataAirport": "AKH", "codeIcaoAirport": "OEPS", "airportId": 209}}, {"geometry": {"type": "Point", "coordinates": [-161.22333, 60.905556]}, "type": "Feature", "properties": {"nameAirport": "Akiak", "codeIataAirport": "AKI", "codeIcaoAirport": "PFAK", "airportId": 210}}, {"geometry": {"type": "Point", "coordinates": [142.45454, 43.67109]}, "type": "Feature", "properties": {"nameAirport": "Asahikawa", "codeIataAirport": "AKJ", "codeIcaoAirport": "RJEC", "airportId": 211}}, {"geometry": {"type": "Point", "coordinates": [-154.16667, 56.944443]}, "type": "Feature", "properties": {"nameAirport": "Akhiok SPB", "codeIataAirport": "AKK", "codeIcaoAirport": "PAKH", "airportId": 212}}, {"geometry": {"type": "Point", "coordinates": [174.78352, -37.004787]}, "type": "Feature", "properties": {"nameAirport": "Auckland International", "codeIataAirport": "AKL", "codeIcaoAirport": "NZAA", "airportId": 213}}, {"geometry": {"type": "Point", "coordinates": [-156.66902, 58.68274]}, "type": "Feature", "properties": {"nameAirport": "King Salmon", "codeIataAirport": "AKN", "codeIcaoAirport": "PAKN", "airportId": 215}}, {"geometry": {"type": "Point", "coordinates": [-103.21667, 40.166668]}, "type": "Feature", "properties": {"nameAirport": "Colorado Plains Regional Airport", "codeIataAirport": "AKO", "codeIcaoAirport": "KAKO", "airportId": 216}}, {"geometry": {"type": "Point", "coordinates": [-151.74, 68.1375]}, "type": "Feature", "properties": {"nameAirport": "Anaktuvuk", "codeIataAirport": "AKP", "codeIcaoAirport": "PAKP", "airportId": 217}}, {"geometry": {"type": "Point", "coordinates": [5.083333, 7.25]}, "type": "Feature", "properties": {"nameAirport": "Akure", "codeIataAirport": "AKR", "codeIcaoAirport": "DNAK", "airportId": 219}}, {"geometry": {"type": "Point", "coordinates": [160.68083, -8.697778]}, "type": "Feature", "properties": {"nameAirport": "Gwaunaru'u", "codeIataAirport": "AKS", "codeIcaoAirport": "AGGA", "airportId": 220}}, {"geometry": {"type": "Point", "coordinates": [32.983334, 34.583332]}, "type": "Feature", "properties": {"nameAirport": "Raf Akrotiri", "codeIataAirport": "AKT", "codeIcaoAirport": "LCRA", "airportId": 221}}, {"geometry": {"type": "Point", "coordinates": [80.29262, 41.259983]}, "type": "Feature", "properties": {"nameAirport": "Aksu", "codeIataAirport": "AKU", "codeIcaoAirport": "ZWAK", "airportId": 222}}, {"geometry": {"type": "Point", "coordinates": [-78.583336, 60.733334]}, "type": "Feature", "properties": {"nameAirport": "Akulivik", "codeIataAirport": "AKV", "codeIcaoAirport": "CYKO", "airportId": 223}}, {"geometry": {"type": "Point", "coordinates": [57.211403, 50.249336]}, "type": "Feature", "properties": {"nameAirport": "Aktyubinsk", "codeIataAirport": "AKX", "codeIcaoAirport": "UATT", "airportId": 225}}, {"geometry": {"type": "Point", "coordinates": [92.88028, 20.130278]}, "type": "Feature", "properties": {"nameAirport": "Civil", "codeIataAirport": "AKY", "codeIcaoAirport": "VYSW", "airportId": 226}}, {"geometry": {"type": "Point", "coordinates": [77.01145, 43.346653]}, "type": "Feature", "properties": {"nameAirport": "Almaty", "codeIataAirport": "ALA", "codeIcaoAirport": "UAAA", "airportId": 227}}, {"geometry": {"type": "Point", "coordinates": [-73.809555, 42.745277]}, "type": "Feature", "properties": {"nameAirport": "Albany International", "codeIataAirport": "ALB", "codeIcaoAirport": "KALB", "airportId": 228}}, {"geometry": {"type": "Point", "coordinates": [-0.557381, 38.287098]}, "type": "Feature", "properties": {"nameAirport": "Alicante El Altet", "codeIataAirport": "ALC", "codeIcaoAirport": "LEAL", "airportId": 229}}, {"geometry": {"type": "Point", "coordinates": [-69.333336, -11.683333]}, "type": "Feature", "properties": {"nameAirport": "Alerta", "codeIataAirport": "ALD", "codeIcaoAirport": "SPAR", "airportId": 230}}, {"geometry": {"type": "Point", "coordinates": [-103.75, 30.416668]}, "type": "Feature", "properties": {"nameAirport": "Alpine", "codeIataAirport": "ALE", "codeIcaoAirport": "KE38", "airportId": 231}}, {"geometry": {"type": "Point", "coordinates": [23.355808, 69.977165]}, "type": "Feature", "properties": {"nameAirport": "Alta", "codeIataAirport": "ALF", "codeIcaoAirport": "ENAT", "airportId": 232}}, {"geometry": {"type": "Point", "coordinates": [3.21167, 36.70058]}, "type": "Feature", "properties": {"nameAirport": "Houari Boumediene", "codeIataAirport": "ALG", "codeIcaoAirport": "DAAG", "airportId": 233}}, {"geometry": {"type": "Point", "coordinates": [117.804, -34.944996]}, "type": "Feature", "properties": {"nameAirport": "Albany", "codeIataAirport": "ALH", "codeIcaoAirport": "YABA", "airportId": 234}}, {"geometry": {"type": "Point", "coordinates": [-98.066666, 27.75]}, "type": "Feature", "properties": {"nameAirport": "International", "codeIataAirport": "ALI", "codeIcaoAirport": "KALI", "airportId": 235}}, {"geometry": {"type": "Point", "coordinates": [16.536388, -28.567223]}, "type": "Feature", "properties": {"nameAirport": "Kortdoorn", "codeIataAirport": "ALJ", "codeIcaoAirport": "FAAB", "airportId": 236}}, {"geometry": {"type": "Point", "coordinates": [8.216667, 44.05]}, "type": "Feature", "properties": {"nameAirport": "Albenga", "codeIataAirport": "ALL", "codeIcaoAirport": "LIMG", "airportId": 238}}, {"geometry": {"type": "Point", "coordinates": [-105.985275, 32.845833]}, "type": "Feature", "properties": {"nameAirport": "Municipal", "codeIataAirport": "ALM", "codeIcaoAirport": "KALM", "airportId": 239}}, {"geometry": {"type": "Point", "coordinates": [-90.04833, 38.891666]}, "type": "Feature", "properties": {"nameAirport": "Alton", "codeIataAirport": "ALN", "codeIcaoAirport": "KALN", "airportId": 240}}, {"geometry": {"type": "Point", "coordinates": [-92.39972, 42.55611]}, "type": "Feature", "properties": {"nameAirport": "Waterloo", "codeIataAirport": "ALO", "codeIcaoAirport": "KALO", "airportId": 241}}, {"geometry": {"type": "Point", "coordinates": [37.227074, 36.185352]}, "type": "Feature", "properties": {"nameAirport": "Nejrab", "codeIataAirport": "ALP", "codeIcaoAirport": "OSAP", "airportId": 242}}, {"geometry": {"type": "Point", "coordinates": [-55.763332, -29.799723]}, "type": "Feature", "properties": {"nameAirport": "Federal", "codeIataAirport": "ALQ", "codeIcaoAirport": "SSLT", "airportId": 243}}, {"geometry": {"type": "Point", "coordinates": [169.36945, -45.21389]}, "type": "Feature", "properties": {"nameAirport": "Alexandra", "codeIataAirport": "ALR", "codeIcaoAirport": "NZLX", "airportId": 244}}, {"geometry": {"type": "Point", "coordinates": [-105.86667, 37.43667]}, "type": "Feature", "properties": {"nameAirport": "Municipal", "codeIataAirport": "ALS", "codeIcaoAirport": "KALS", "airportId": 245}}, {"geometry": {"type": "Point", "coordinates": [50.8, 11.966667]}, "type": "Feature", "properties": {"nameAirport": "Alula", "codeIataAirport": "ALU", "codeIcaoAirport": "HCMA", "airportId": 247}}, {"geometry": {"type": "Point", "coordinates": [-118.291115, 46.094723]}, "type": "Feature", "properties": {"nameAirport": "Walla Walla", "codeIataAirport": "ALW", "codeIcaoAirport": "KALW", "airportId": 248}}, {"geometry": {"type": "Point", "coordinates": [-85.95, 32.933334]}, "type": "Feature", "properties": {"nameAirport": "Thomas C Russell Field", "codeIataAirport": "ALX", "codeIcaoAirport": "ALX_", "airportId": 249}}, {"geometry": {"type": "Point", "coordinates": [29.953058, 31.192545]}, "type": "Feature", "properties": {"nameAirport": "El Nohza", "codeIataAirport": "ALY", "codeIcaoAirport": "HEAX", "airportId": 250}}, {"geometry": {"type": "Point", "coordinates": [-101.70513, 35.218273]}, "type": "Feature", "properties": {"nameAirport": "Rick Husband Amarillo International", "codeIataAirport": "AMA", "codeIcaoAirport": "KAMA", "airportId": 252}}, {"geometry": {"type": "Point", "coordinates": [20.283333, 11.033333]}, "type": "Feature", "properties": {"nameAirport": "Am Timan", "codeIataAirport": "AMC", "codeIcaoAirport": "FTTN", "airportId": 254}}, {"geometry": {"type": "Point", "coordinates": [72.62417, 23.06639]}, "type": "Feature", "properties": {"nameAirport": "Ahmedabad", "codeIataAirport": "AMD", "codeIcaoAirport": "VAAH", "airportId": 255}}, {"geometry": {"type": "Point", "coordinates": [37.576942, 6.036111]}, "type": "Feature", "properties": {"nameAirport": "Arba Mintch", "codeIataAirport": "AMH", "codeIcaoAirport": "HAAM", "airportId": 259}}, {"geometry": {"type": "Point", "coordinates": [-40.683334, -16.183332]}, "type": "Feature", "properties": {"nameAirport": "Almenara", "codeIataAirport": "AMJ", "codeIcaoAirport": "SNAR", "airportId": 260}}, {"geometry": {"type": "Point", "coordinates": [35.98932, 31.722534]}, "type": "Feature", "properties": {"nameAirport": "Queen Alia International", "codeIataAirport": "AMM", "codeIcaoAirport": "OJAI", "airportId": 262}}, {"geometry": {"type": "Point", "coordinates": [-84.65, 43.38333]}, "type": "Feature", "properties": {"nameAirport": "Gratiot Community", "codeIataAirport": "AMN", "codeIcaoAirport": "KAMN", "airportId": 263}}, {"geometry": {"type": "Point", "coordinates": [44.733334, -24.7]}, "type": "Feature", "properties": {"nameAirport": "Ampanihy", "codeIataAirport": "AMP", "codeIcaoAirport": "FMSY", "airportId": 265}}, {"geometry": {"type": "Point", "coordinates": [128.08888, -3.704996]}, "type": "Feature", "properties": {"nameAirport": "Pattimura", "codeIataAirport": "AMQ", "codeIcaoAirport": "WAPP", "airportId": 266}}, {"geometry": {"type": "Point", "coordinates": [4.763385, 52.30907]}, "type": "Feature", "properties": {"nameAirport": "Schiphol", "codeIataAirport": "AMS", "codeIcaoAirport": "EHAM", "airportId": 268}}, {"geometry": {"type": "Point", "coordinates": [132.03334, -26.766666]}, "type": "Feature", "properties": {"nameAirport": "Amata", "codeIataAirport": "AMT", "codeIcaoAirport": "YAMT", "airportId": 269}}, {"geometry": {"type": "Point", "coordinates": [61.55, 69.76667]}, "type": "Feature", "properties": {"nameAirport": "Amderma", "codeIataAirport": "AMV", "codeIcaoAirport": "ULDD", "airportId": 271}}, {"geometry": {"type": "Point", "coordinates": [-93.61833, 41.994167]}, "type": "Feature", "properties": {"nameAirport": "Ames", "codeIataAirport": "AMW", "codeIcaoAirport": "KAMW", "airportId": 272}}, {"geometry": {"type": "Point", "coordinates": [135.24, -21.74]}, "type": "Feature", "properties": {"nameAirport": "Ammaroo", "codeIataAirport": "AMX", "codeIcaoAirport": "YAMM", "airportId": 273}}, {"geometry": {"type": "Point", "coordinates": [174.96666, -37.033333]}, "type": "Feature", "properties": {"nameAirport": "Ardmore", "codeIataAirport": "AMZ", "codeIcaoAirport": "NZAR", "airportId": 275}}, {"geometry": {"type": "Point", "coordinates": [-85.855835, 33.59028]}, "type": "Feature", "properties": {"nameAirport": "Anniston Metropolitan", "codeIataAirport": "ANB", "codeIcaoAirport": "KANB", "airportId": 277}}, {"geometry": {"type": "Point", "coordinates": [-149.99638, 61.174442]}, "type": "Feature", "properties": {"nameAirport": "Ted Stevens Anchorage International Airport", "codeIataAirport": "ANC", "codeIcaoAirport": "PANC", "airportId": 278}}, {"geometry": {"type": "Point", "coordinates": [-82.71, 34.49361]}, "type": "Feature", "properties": {"nameAirport": "Anderson", "codeIataAirport": "AND", "codeIcaoAirport": "KAND", "airportId": 279}}, {"geometry": {"type": "Point", "coordinates": [-0.55, 47.466667]}, "type": "Feature", "properties": {"nameAirport": "Marce", "codeIataAirport": "ANE", "codeIcaoAirport": "LFJR", "airportId": 280}}, {"geometry": {"type": "Point", "coordinates": [-70.44079, -23.449]}, "type": "Feature", "properties": {"nameAirport": "Cerro Moreno", "codeIataAirport": "ANF", "codeIcaoAirport": "SCFA", "airportId": 281}}, {"geometry": {"type": "Point", "coordinates": [0.216667, 45.733334]}, "type": "Feature", "properties": {"nameAirport": "Brie-Champniers", "codeIataAirport": "ANG", "codeIcaoAirport": "LFBU", "airportId": 282}}, {"geometry": {"type": "Point", "coordinates": [-159.53697, 61.574398]}, "type": "Feature", "properties": {"nameAirport": "Aniak", "codeIataAirport": "ANI", "codeIcaoAirport": "PANI", "airportId": 283}}, {"geometry": {"type": "Point", "coordinates": [32.833332, 39.983334]}, "type": "Feature", "properties": {"nameAirport": "Etimesgut", "codeIataAirport": "ANK", "codeIcaoAirport": "LTAD", "airportId": 285}}, {"geometry": {"type": "Point", "coordinates": [50.316666, -15.0]}, "type": "Feature", "properties": {"nameAirport": "Antsirabato", "codeIataAirport": "ANM", "codeIcaoAirport": "FMNH", "airportId": 287}}, {"geometry": {"type": "Point", "coordinates": [-131.57056, 55.036945]}, "type": "Feature", "properties": {"nameAirport": "Annette Island", "codeIataAirport": "ANN", "codeIcaoAirport": "PANT", "airportId": 288}}, {"geometry": {"type": "Point", "coordinates": [-76.5, 38.983334]}, "type": "Feature", "properties": {"nameAirport": "Lee", "codeIataAirport": "ANP", "codeIcaoAirport": "KANP", "airportId": 290}}, {"geometry": {"type": "Point", "coordinates": [-85.0, 41.63333]}, "type": "Feature", "properties": {"nameAirport": "Tri-State Steuben County", "codeIataAirport": "ANQ", "codeIcaoAirport": "KANQ", "airportId": 291}}, {"geometry": {"type": "Point", "coordinates": [4.450672, 51.18916]}, "type": "Feature", "properties": {"nameAirport": "Deurne/ Antwerp Airport", "codeIataAirport": "ANR", "codeIcaoAirport": "EBAW", "airportId": 292}}, {"geometry": {"type": "Point", "coordinates": [-73.355835, -13.716667]}, "type": "Feature", "properties": {"nameAirport": "Andahuaylas", "codeIataAirport": "ANS", "codeIcaoAirport": "SPHY", "airportId": 293}}, {"geometry": {"type": "Point", "coordinates": [-61.76389, 17.108334]}, "type": "Feature", "properties": {"nameAirport": "V. C. Bird International", "codeIataAirport": "ANU", "codeIcaoAirport": "TAPA", "airportId": 295}}, {"geometry": {"type": "Point", "coordinates": [-160.18889, 62.647778]}, "type": "Feature", "properties": {"nameAirport": "Anvik", "codeIataAirport": "ANV", "codeIcaoAirport": "PANV", "airportId": 296}}, {"geometry": {"type": "Point", "coordinates": [-99.86667, 42.55]}, "type": "Feature", "properties": {"nameAirport": "Ainsworth", "codeIataAirport": "ANW", "codeIcaoAirport": "KANW", "airportId": 297}}, {"geometry": {"type": "Point", "coordinates": [16.133326, 69.30492]}, "type": "Feature", "properties": {"nameAirport": "And\u00f8ya Lufthavn, Andenes", "codeIataAirport": "ANX", "codeIcaoAirport": "ENAN", "airportId": 298}}, {"geometry": {"type": "Point", "coordinates": [-98.03333, 37.15]}, "type": "Feature", "properties": {"nameAirport": "Anthony", "codeIataAirport": "ANY", "codeIcaoAirport": "KANY", "airportId": 299}}, {"geometry": {"type": "Point", "coordinates": [12.45, 50.983334]}, "type": "Feature", "properties": {"nameAirport": "Altenburg Nobitz", "codeIataAirport": "AOC", "codeIcaoAirport": "EDAC", "airportId": 302}}, {"geometry": {"type": "Point", "coordinates": [30.519444, 39.81]}, "type": "Feature", "properties": {"nameAirport": "Anadolu University", "codeIataAirport": "AOE", "codeIcaoAirport": "LTBY", "airportId": 304}}, {"geometry": {"type": "Point", "coordinates": [123.03333, 41.166668]}, "type": "Feature", "properties": {"nameAirport": "Anshan", "codeIataAirport": "AOG", "codeIcaoAirport": "ZYAS", "airportId": 305}}, {"geometry": {"type": "Point", "coordinates": [-84.1, 40.766666]}, "type": "Feature", "properties": {"nameAirport": "Allen County", "codeIataAirport": "AOH", "codeIcaoAirport": "KAOH", "airportId": 306}}, {"geometry": {"type": "Point", "coordinates": [13.355723, 43.60691]}, "type": "Feature", "properties": {"nameAirport": "Falconara", "codeIataAirport": "AOI", "codeIcaoAirport": "LIPY", "airportId": 307}}, {"geometry": {"type": "Point", "coordinates": [140.68922, 40.738758]}, "type": "Feature", "properties": {"nameAirport": "Aomori", "codeIataAirport": "AOJ", "codeIcaoAirport": "RJSA", "airportId": 308}}, {"geometry": {"type": "Point", "coordinates": [27.146729, 35.420685]}, "type": "Feature", "properties": {"nameAirport": "Karpathos", "codeIataAirport": "AOK", "codeIcaoAirport": "LGKP", "airportId": 309}}, {"geometry": {"type": "Point", "coordinates": [-57.15, -29.683332]}, "type": "Feature", "properties": {"nameAirport": "Paso De Los Libres", "codeIataAirport": "AOL", "codeIcaoAirport": "SARL", "airportId": 310}}, {"geometry": {"type": "Point", "coordinates": [-78.32, 40.297222]}, "type": "Feature", "properties": {"nameAirport": "Martinsburg", "codeIataAirport": "AOO", "codeIcaoAirport": "KAOO", "airportId": 313}}, {"geometry": {"type": "Point", "coordinates": [100.405266, 6.201171]}, "type": "Feature", "properties": {"nameAirport": "Alor Setar", "codeIataAirport": "AOR", "codeIcaoAirport": "WMKA", "airportId": 315}}, {"geometry": {"type": "Point", "coordinates": [7.3625, 45.73861]}, "type": "Feature", "properties": {"nameAirport": "Corrado Gex", "codeIataAirport": "AOT", "codeIcaoAirport": "LIMW", "airportId": 317}}, {"geometry": {"type": "Point", "coordinates": [106.833336, 14.8]}, "type": "Feature", "properties": {"nameAirport": "Attopeu", "codeIataAirport": "AOU", "codeIcaoAirport": "VLAP", "airportId": 318}}, {"geometry": {"type": "Point", "coordinates": [-104.98333, 39.733334]}, "type": "Feature", "properties": {"nameAirport": "Arapahoe Co", "codeIataAirport": "APA", "codeIcaoAirport": "KAPA", "airportId": 319}}, {"geometry": {"type": "Point", "coordinates": [-68.51667, -14.716667]}, "type": "Feature", "properties": {"nameAirport": "Apolo", "codeIataAirport": "APB", "codeIcaoAirport": "SLAP", "airportId": 320}}, {"geometry": {"type": "Point", "coordinates": [-122.28, 38.212223]}, "type": "Feature", "properties": {"nameAirport": "Napa County", "codeIataAirport": "APC", "codeIcaoAirport": "KAPC", "airportId": 321}}, {"geometry": {"type": "Point", "coordinates": [-81.775276, 26.152779]}, "type": "Feature", "properties": {"nameAirport": "Naples", "codeIataAirport": "APF", "codeIcaoAirport": "KAPF", "airportId": 323}}, {"geometry": {"type": "Point", "coordinates": [-146.08333, -15.416667]}, "type": "Feature", "properties": {"nameAirport": "Apataki", "codeIataAirport": "APK", "codeIcaoAirport": "NTGD", "airportId": 327}}, {"geometry": {"type": "Point", "coordinates": [39.287224, -15.101667]}, "type": "Feature", "properties": {"nameAirport": "Nampula", "codeIataAirport": "APL", "codeIcaoAirport": "FQNP", "airportId": 328}}, {"geometry": {"type": "Point", "coordinates": [-83.55583, 45.08167]}, "type": "Feature", "properties": {"nameAirport": "Alpena County Regional", "codeIataAirport": "APN", "codeIcaoAirport": "KAPN", "airportId": 329}}, {"geometry": {"type": "Point", "coordinates": [-76.71766, 7.817678]}, "type": "Feature", "properties": {"nameAirport": "Apartado", "codeIataAirport": "APO", "codeIcaoAirport": "SKLC", "airportId": 330}}, {"geometry": {"type": "Point", "coordinates": [-36.65, -9.75]}, "type": "Feature", "properties": {"nameAirport": "Arapiraca", "codeIataAirport": "APQ", "codeIcaoAirport": "SNAL", "airportId": 332}}, {"geometry": {"type": "Point", "coordinates": [-48.966667, -16.333332]}, "type": "Feature", "properties": {"nameAirport": "Anapolis", "codeIataAirport": "APS", "codeIcaoAirport": "SBAN", "airportId": 334}}, {"geometry": {"type": "Point", "coordinates": [-51.483334, -23.55]}, "type": "Feature", "properties": {"nameAirport": "Apucarana", "codeIataAirport": "APU", "codeIcaoAirport": "SSAP", "airportId": 336}}, {"geometry": {"type": "Point", "coordinates": [-117.212776, 34.52639]}, "type": "Feature", "properties": {"nameAirport": "Apple Valley", "codeIataAirport": "APV", "codeIcaoAirport": "KAPV", "airportId": 337}}, {"geometry": {"type": "Point", "coordinates": [-171.99724, -13.832793]}, "type": "Feature", "properties": {"nameAirport": "Faleolo", "codeIataAirport": "APW", "codeIcaoAirport": "NSFA", "airportId": 338}}, {"geometry": {"type": "Point", "coordinates": [-51.466667, -23.483334]}, "type": "Feature", "properties": {"nameAirport": "Arapongas", "codeIataAirport": "APX", "codeIcaoAirport": "SSOG", "airportId": 339}}, {"geometry": {"type": "Point", "coordinates": [-70.083336, -38.916668]}, "type": "Feature", "properties": {"nameAirport": "Zapala", "codeIataAirport": "APZ", "codeIcaoAirport": "SAHZ", "airportId": 341}}, {"geometry": {"type": "Point", "coordinates": [-48.13333, -21.816668]}, "type": "Feature", "properties": {"nameAirport": "Araraquara", "codeIataAirport": "AQA", "codeIcaoAirport": "SBAQ", "airportId": 342}}, {"geometry": {"type": "Point", "coordinates": [-91.15, 15.01]}, "type": "Feature", "properties": {"nameAirport": "Quiche Airport", "codeIataAirport": "AQB", "codeIcaoAirport": "MGQC", "airportId": 343}}, {"geometry": {"type": "Point", "coordinates": [117.0509, 30.5825]}, "type": "Feature", "properties": {"nameAirport": "Anqing", "codeIataAirport": "AQG", "codeIcaoAirport": "ZSAQ", "airportId": 344}}, {"geometry": {"type": "Point", "coordinates": [46.121315, 28.334408]}, "type": "Feature", "properties": {"nameAirport": "Qaisumah", "codeIataAirport": "AQI", "codeIcaoAirport": "OEPA", "airportId": 345}}, {"geometry": {"type": "Point", "coordinates": [35.02151, 29.610073]}, "type": "Feature", "properties": {"nameAirport": "King Hussein International", "codeIataAirport": "AQJ", "codeIcaoAirport": "OJAQ", "airportId": 346}}, {"geometry": {"type": "Point", "coordinates": [-63.066666, -9.933333]}, "type": "Feature", "properties": {"nameAirport": "Ariquemes", "codeIataAirport": "AQM", "codeIcaoAirport": "SWNI", "airportId": 347}}, {"geometry": {"type": "Point", "coordinates": [-71.56799, -16.344812]}, "type": "Feature", "properties": {"nameAirport": "Rodriguez Ballon", "codeIataAirport": "AQP", "codeIcaoAirport": "SPQU", "airportId": 348}}, {"geometry": {"type": "Point", "coordinates": [-91.88389, 30.037779]}, "type": "Feature", "properties": {"nameAirport": "Acadiana Regional", "codeIataAirport": "ARA", "codeIcaoAirport": "KARA", "airportId": 350}}, {"geometry": {"type": "Point", "coordinates": [-83.75, 42.3]}, "type": "Feature", "properties": {"nameAirport": "Municipal", "codeIataAirport": "ARB", "codeIcaoAirport": "KARB", "airportId": 351}}, {"geometry": {"type": "Point", "coordinates": [-145.52444, 68.1375]}, "type": "Feature", "properties": {"nameAirport": "Arctic Village", "codeIataAirport": "ARC", "codeIcaoAirport": "PARC", "airportId": 352}}, {"geometry": {"type": "Point", "coordinates": [124.53333, -8.683333]}, "type": "Feature", "properties": {"nameAirport": "Alor Island", "codeIataAirport": "ARD", "codeIcaoAirport": "WATM", "airportId": 353}}, {"geometry": {"type": "Point", "coordinates": [-66.675835, 18.45]}, "type": "Feature", "properties": {"nameAirport": "Arecibo", "codeIataAirport": "ARE", "codeIcaoAirport": "TJAB", "airportId": 354}}, {"geometry": {"type": "Point", "coordinates": [-90.95, 36.066666]}, "type": "Feature", "properties": {"nameAirport": "Walnut Ridge", "codeIataAirport": "ARG", "codeIcaoAirport": "KARG", "airportId": 356}}, {"geometry": {"type": "Point", "coordinates": [40.711903, 64.594795]}, "type": "Feature", "properties": {"nameAirport": "Arkhangelsk", "codeIataAirport": "ARH", "codeIcaoAirport": "ULAA", "airportId": 357}}, {"geometry": {"type": "Point", "coordinates": [-70.335556, -18.349766]}, "type": "Feature", "properties": {"nameAirport": "Chacalluta", "codeIataAirport": "ARI", "codeIcaoAirport": "SCAR", "airportId": 358}}, {"geometry": {"type": "Point", "coordinates": [140.78334, -2.933333]}, "type": "Feature", "properties": {"nameAirport": "Arso", "codeIataAirport": "ARJ", "codeIcaoAirport": "WAJA", "airportId": 359}}, {"geometry": {"type": "Point", "coordinates": [36.683334, -3.366667]}, "type": "Feature", "properties": {"nameAirport": "Arusha", "codeIataAirport": "ARK", "codeIcaoAirport": "HTAR", "airportId": 360}}, {"geometry": {"type": "Point", "coordinates": [1.483333, 11.6]}, "type": "Feature", "properties": {"nameAirport": "Arly", "codeIataAirport": "ARL", "codeIcaoAirport": "DFER", "airportId": 361}}, {"geometry": {"type": "Point", "coordinates": [151.61493, -30.532297]}, "type": "Feature", "properties": {"nameAirport": "Armidale", "codeIataAirport": "ARM", "codeIcaoAirport": "YARM", "airportId": 362}}, {"geometry": {"type": "Point", "coordinates": [17.930365, 59.64982]}, "type": "Feature", "properties": {"nameAirport": "Arlanda", "codeIataAirport": "ARN", "codeIcaoAirport": "ESSA", "airportId": 363}}, {"geometry": {"type": "Point", "coordinates": [-70.833336, -45.033333]}, "type": "Feature", "properties": {"nameAirport": "Alto Rio Senguerr", "codeIataAirport": "ARR", "codeIcaoAirport": "SAVR", "airportId": 367}}, {"geometry": {"type": "Point", "coordinates": [-76.021385, 43.990833]}, "type": "Feature", "properties": {"nameAirport": "Watertown", "codeIataAirport": "ART", "codeIcaoAirport": "KART", "airportId": 369}}, {"geometry": {"type": "Point", "coordinates": [-50.42611, -21.143612]}, "type": "Feature", "properties": {"nameAirport": "Aracatuba", "codeIataAirport": "ARU", "codeIcaoAirport": "SBAU", "airportId": 370}}, {"geometry": {"type": "Point", "coordinates": [-89.73222, 45.924168]}, "type": "Feature", "properties": {"nameAirport": "Noble F. Lee", "codeIataAirport": "ARV", "codeIcaoAirport": "KARV", "airportId": 371}}, {"geometry": {"type": "Point", "coordinates": [21.266666, 46.183334]}, "type": "Feature", "properties": {"nameAirport": "Arad", "codeIataAirport": "ARW", "codeIcaoAirport": "LRAR", "airportId": 372}}, {"geometry": {"type": "Point", "coordinates": [143.0, -37.316666]}, "type": "Feature", "properties": {"nameAirport": "Ararat", "codeIataAirport": "ARY", "codeIcaoAirport": "YARA", "airportId": 373}}, {"geometry": {"type": "Point", "coordinates": [13.5, -7.5]}, "type": "Feature", "properties": {"nameAirport": "N'zeto", "codeIataAirport": "ARZ", "codeIcaoAirport": "FNZE", "airportId": 374}}, {"geometry": {"type": "Point", "coordinates": [42.638332, 13.07]}, "type": "Feature", "properties": {"nameAirport": "Assab International", "codeIataAirport": "ASA", "codeIcaoAirport": "HHSB", "airportId": 375}}, {"geometry": {"type": "Point", "coordinates": [58.366978, 37.984184]}, "type": "Feature", "properties": {"nameAirport": "Ashgabat", "codeIataAirport": "ASB", "codeIcaoAirport": "UTAA", "airportId": 376}}, {"geometry": {"type": "Point", "coordinates": [-63.15, -15.916667]}, "type": "Feature", "properties": {"nameAirport": "Ascension", "codeIataAirport": "ASC", "codeIcaoAirport": "SLAS", "airportId": 377}}, {"geometry": {"type": "Point", "coordinates": [-77.79611, 24.697779]}, "type": "Feature", "properties": {"nameAirport": "Andros Town", "codeIataAirport": "ASD", "codeIcaoAirport": "MYAF", "airportId": 378}}, {"geometry": {"type": "Point", "coordinates": [-106.864685, 39.219685]}, "type": "Feature", "properties": {"nameAirport": "Aspen", "codeIataAirport": "ASE", "codeIcaoAirport": "KASE", "airportId": 379}}, {"geometry": {"type": "Point", "coordinates": [47.999977, 46.2877]}, "type": "Feature", "properties": {"nameAirport": "Astrakhan", "codeIataAirport": "ASF", "codeIcaoAirport": "URWA", "airportId": 380}}, {"geometry": {"type": "Point", "coordinates": [171.78334, -43.9]}, "type": "Feature", "properties": {"nameAirport": "Ashburton", "codeIataAirport": "ASG", "codeIcaoAirport": "NZAS", "airportId": 381}}, {"geometry": {"type": "Point", "coordinates": [-71.509445, 42.77889]}, "type": "Feature", "properties": {"nameAirport": "Boire Field", "codeIataAirport": "ASH", "codeIcaoAirport": "KASH", "airportId": 382}}, {"geometry": {"type": "Point", "coordinates": [129.70793, 28.431522]}, "type": "Feature", "properties": {"nameAirport": "Amami", "codeIataAirport": "ASJ", "codeIcaoAirport": "RJKA", "airportId": 384}}, {"geometry": {"type": "Point", "coordinates": [-5.283333, 6.816667]}, "type": "Feature", "properties": {"nameAirport": "Yamoussoukro", "codeIataAirport": "ASK", "codeIcaoAirport": "DIYO", "airportId": 385}}, {"geometry": {"type": "Point", "coordinates": [-94.38333, 32.55]}, "type": "Feature", "properties": {"nameAirport": "Harrison County", "codeIataAirport": "ASL", "codeIcaoAirport": "KASL", "airportId": 386}}, {"geometry": {"type": "Point", "coordinates": [38.91028, 15.291111]}, "type": "Feature", "properties": {"nameAirport": "Yohannes IV", "codeIataAirport": "ASM", "codeIcaoAirport": "HHAS", "airportId": 387}}, {"geometry": {"type": "Point", "coordinates": [-86.1, 33.433334]}, "type": "Feature", "properties": {"nameAirport": "Talladega", "codeIataAirport": "ASN", "codeIcaoAirport": "KASN", "airportId": 388}}, {"geometry": {"type": "Point", "coordinates": [34.536667, 10.047222]}, "type": "Feature", "properties": {"nameAirport": "Asosa", "codeIataAirport": "ASO", "codeIcaoAirport": "HASO", "airportId": 389}}, {"geometry": {"type": "Point", "coordinates": [133.90338, -23.80139]}, "type": "Feature", "properties": {"nameAirport": "Alice Springs", "codeIataAirport": "ASP", "codeIcaoAirport": "YBAS", "airportId": 390}}, {"geometry": {"type": "Point", "coordinates": [-117.166664, 39.466667]}, "type": "Feature", "properties": {"nameAirport": "Austin", "codeIataAirport": "ASQ", "codeIcaoAirport": "KTMT", "airportId": 391}}, {"geometry": {"type": "Point", "coordinates": [35.490707, 38.7742]}, "type": "Feature", "properties": {"nameAirport": "Erkilet International Airport", "codeIataAirport": "ASR", "codeIcaoAirport": "LTAU", "airportId": 392}}, {"geometry": {"type": "Point", "coordinates": [-123.88, 46.15972]}, "type": "Feature", "properties": {"nameAirport": "Astoria", "codeIataAirport": "AST", "codeIcaoAirport": "KAST", "airportId": 393}}, {"geometry": {"type": "Point", "coordinates": [-57.513794, -25.241795]}, "type": "Feature", "properties": {"nameAirport": "Silvio Pettirossi", "codeIataAirport": "ASU", "codeIcaoAirport": "SGAS", "airportId": 394}}, {"geometry": {"type": "Point", "coordinates": [37.25, -2.633333]}, "type": "Feature", "properties": {"nameAirport": "Amboseli", "codeIataAirport": "ASV", "codeIcaoAirport": "HKAM", "airportId": 395}}, {"geometry": {"type": "Point", "coordinates": [32.824818, 23.968021]}, "type": "Feature", "properties": {"nameAirport": "Aswan", "codeIataAirport": "ASW", "codeIcaoAirport": "HESN", "airportId": 396}}, {"geometry": {"type": "Point", "coordinates": [-90.916664, 46.55]}, "type": "Feature", "properties": {"nameAirport": "Ashland", "codeIataAirport": "ASX", "codeIcaoAirport": "KASX", "airportId": 397}}, {"geometry": {"type": "Point", "coordinates": [-77.6, -9.347222]}, "type": "Feature", "properties": {"nameAirport": "Anta", "codeIataAirport": "ATA", "codeIcaoAirport": "SPHZ", "airportId": 400}}, {"geometry": {"type": "Point", "coordinates": [34.016666, 17.716667]}, "type": "Feature", "properties": {"nameAirport": "Atbara", "codeIataAirport": "ATB", "codeIcaoAirport": "HSAT", "airportId": 401}}, {"geometry": {"type": "Point", "coordinates": [-75.67139, 24.62861]}, "type": "Feature", "properties": {"nameAirport": "Arthur's Town", "codeIataAirport": "ATC", "codeIcaoAirport": "MYCA", "airportId": 402}}, {"geometry": {"type": "Point", "coordinates": [161.03334, -8.866667]}, "type": "Feature", "properties": {"nameAirport": "Atoifi", "codeIataAirport": "ATD", "codeIcaoAirport": "AGAT", "airportId": 403}}, {"geometry": {"type": "Point", "coordinates": [-78.7, -1.083333]}, "type": "Feature", "properties": {"nameAirport": "Chachoan", "codeIataAirport": "ATF", "codeIcaoAirport": "SEAM", "airportId": 405}}, {"geometry": {"type": "Point", "coordinates": [23.946486, 37.93635]}, "type": "Feature", "properties": {"nameAirport": "Athens International Airport \"Eleftherios Venizelos\"", "codeIataAirport": "ATH", "codeIcaoAirport": "LGAV", "airportId": 407}}, {"geometry": {"type": "Point", "coordinates": [-56.50833, -30.4]}, "type": "Feature", "properties": {"nameAirport": "Artigas", "codeIataAirport": "ATI", "codeIcaoAirport": "SUAG", "airportId": 408}}, {"geometry": {"type": "Point", "coordinates": [47.016666, -19.85]}, "type": "Feature", "properties": {"nameAirport": "Antsirabe", "codeIataAirport": "ATJ", "codeIcaoAirport": "FMME", "airportId": 409}}, {"geometry": {"type": "Point", "coordinates": [-157.33333, 70.5]}, "type": "Feature", "properties": {"nameAirport": "Atqasuk", "codeIataAirport": "ATK", "codeIcaoAirport": "PATQ", "airportId": 410}}, {"geometry": {"type": "Point", "coordinates": [-84.44403, 33.640068]}, "type": "Feature", "properties": {"nameAirport": "Hartsfield-jackson Atlanta International", "codeIataAirport": "ATL", "codeIcaoAirport": "KATL", "airportId": 411}}, {"geometry": {"type": "Point", "coordinates": [-52.216667, -3.2]}, "type": "Feature", "properties": {"nameAirport": "Altamira", "codeIataAirport": "ATM", "codeIcaoAirport": "SBHT", "airportId": 412}}, {"geometry": {"type": "Point", "coordinates": [142.28334, -3.166667]}, "type": "Feature", "properties": {"nameAirport": "Airstrip", "codeIataAirport": "ATP", "codeIcaoAirport": "AYAI", "airportId": 415}}, {"geometry": {"type": "Point", "coordinates": [74.8073, 31.706741]}, "type": "Feature", "properties": {"nameAirport": "Raja Sansi International Airport", "codeIataAirport": "ATQ", "codeIcaoAirport": "VIAR", "airportId": 416}}, {"geometry": {"type": "Point", "coordinates": [-13.046389, 20.499443]}, "type": "Feature", "properties": {"nameAirport": "Mouakchott", "codeIataAirport": "ATR", "codeIcaoAirport": "GQPA", "airportId": 417}}, {"geometry": {"type": "Point", "coordinates": [-104.46694, 32.84833]}, "type": "Feature", "properties": {"nameAirport": "Artesia", "codeIataAirport": "ATS", "codeIcaoAirport": "KATS", "airportId": 418}}, {"geometry": {"type": "Point", "coordinates": [-162.2675, 60.866943]}, "type": "Feature", "properties": {"nameAirport": "Atmautluak", "codeIataAirport": "ATT", "codeIcaoAirport": "KATT", "airportId": 419}}, {"geometry": {"type": "Point", "coordinates": [-88.50994, 44.26011]}, "type": "Feature", "properties": {"nameAirport": "Outagamie County", "codeIataAirport": "ATW", "codeIcaoAirport": "KATW", "airportId": 421}}, {"geometry": {"type": "Point", "coordinates": [-97.15417, 44.90889]}, "type": "Feature", "properties": {"nameAirport": "Watertown", "codeIataAirport": "ATY", "codeIcaoAirport": "KATY", "airportId": 423}}, {"geometry": {"type": "Point", "coordinates": [31.0, 27.033333]}, "type": "Feature", "properties": {"nameAirport": "Assiut", "codeIataAirport": "ATZ", "codeIcaoAirport": "HEAT", "airportId": 424}}, {"geometry": {"type": "Point", "coordinates": [-70.013885, 12.502222]}, "type": "Feature", "properties": {"nameAirport": "Reina Beatrix", "codeIataAirport": "AUA", "codeIcaoAirport": "TNCA", "airportId": 425}}, {"geometry": {"type": "Point", "coordinates": [-70.7425, 7.071667]}, "type": "Feature", "properties": {"nameAirport": "Arauca", "codeIataAirport": "AUC", "codeIcaoAirport": "SKUC", "airportId": 427}}, {"geometry": {"type": "Point", "coordinates": [139.88167, -18.506945]}, "type": "Feature", "properties": {"nameAirport": "Augustus Downs", "codeIataAirport": "AUD", "codeIcaoAirport": "YAGD", "airportId": 428}}, {"geometry": {"type": "Point", "coordinates": [3.5, 47.85]}, "type": "Feature", "properties": {"nameAirport": "Auxerre Branches", "codeIataAirport": "AUF", "codeIcaoAirport": "LFLA", "airportId": 430}}, {"geometry": {"type": "Point", "coordinates": [-69.79667, 44.318054]}, "type": "Feature", "properties": {"nameAirport": "Augusta", "codeIataAirport": "AUG", "codeIcaoAirport": "KAUG", "airportId": 431}}, {"geometry": {"type": "Point", "coordinates": [54.645973, 24.426912]}, "type": "Feature", "properties": {"nameAirport": "Abu Dhabi International", "codeIataAirport": "AUH", "codeIcaoAirport": "OMAA", "airportId": 432}}, {"geometry": {"type": "Point", "coordinates": [-164.61084, 62.689167]}, "type": "Feature", "properties": {"nameAirport": "Alakanuk", "codeIataAirport": "AUK", "codeIcaoAirport": "PAUK", "airportId": 435}}, {"geometry": {"type": "Point", "coordinates": [-92.98333, 43.666668]}, "type": "Feature", "properties": {"nameAirport": "Austin", "codeIataAirport": "AUM", "codeIcaoAirport": "KAUM", "airportId": 437}}, {"geometry": {"type": "Point", "coordinates": [-121.066666, 38.9]}, "type": "Feature", "properties": {"nameAirport": "Auburn", "codeIataAirport": "AUN", "codeIcaoAirport": "KAUN", "airportId": 438}}, {"geometry": {"type": "Point", "coordinates": [-85.5, 32.63333]}, "type": "Feature", "properties": {"nameAirport": "Auburn-Opelika", "codeIataAirport": "AUO", "codeIcaoAirport": "KAUO", "airportId": 439}}, {"geometry": {"type": "Point", "coordinates": [-139.00978, -9.769324]}, "type": "Feature", "properties": {"nameAirport": "Atuona", "codeIataAirport": "AUQ", "codeIcaoAirport": "NTMN", "airportId": 441}}, {"geometry": {"type": "Point", "coordinates": [2.418056, 44.8975]}, "type": "Feature", "properties": {"nameAirport": "Aurillac", "codeIataAirport": "AUR", "codeIcaoAirport": "LFLW", "airportId": 442}}, {"geometry": {"type": "Point", "coordinates": [-97.66706, 30.202545]}, "type": "Feature", "properties": {"nameAirport": "Austin-bergstrom International", "codeIataAirport": "AUS", "codeIcaoAirport": "KAUS", "airportId": 443}}, {"geometry": {"type": "Point", "coordinates": [125.583336, -8.216667]}, "type": "Feature", "properties": {"nameAirport": "Atauro", "codeIataAirport": "AUT", "codeIcaoAirport": "WPAT", "airportId": 444}}, {"geometry": {"type": "Point", "coordinates": [142.25, -13.166667]}, "type": "Feature", "properties": {"nameAirport": "Aurukun Mission", "codeIataAirport": "AUU", "codeIcaoAirport": "YAUR", "airportId": 445}}, {"geometry": {"type": "Point", "coordinates": [-48.2, -7.2]}, "type": "Feature", "properties": {"nameAirport": "Araguaina", "codeIataAirport": "AUX", "codeIcaoAirport": "SWGN", "airportId": 448}}, {"geometry": {"type": "Point", "coordinates": [169.66667, -20.333332]}, "type": "Feature", "properties": {"nameAirport": "Aneityum", "codeIataAirport": "AUY", "codeIcaoAirport": "NVVA", "airportId": 449}}, {"geometry": {"type": "Point", "coordinates": [-88.316666, 41.75]}, "type": "Feature", "properties": {"nameAirport": "Municipal Airport", "codeIataAirport": "AUZ", "codeIcaoAirport": "KARR", "airportId": 450}}, {"geometry": {"type": "Point", "coordinates": [105.87278, 26.257221]}, "type": "Feature", "properties": {"nameAirport": "An Shun/Huang Guo Shu", "codeIataAirport": "AVA", "codeIcaoAirport": "ZUAS", "airportId": 451}}, {"geometry": {"type": "Point", "coordinates": [12.6, 46.033333]}, "type": "Feature", "properties": {"nameAirport": "Aviano", "codeIataAirport": "AVB", "codeIcaoAirport": "LIPA", "airportId": 452}}, {"geometry": {"type": "Point", "coordinates": [130.01666, -15.65]}, "type": "Feature", "properties": {"nameAirport": "Auvergne", "codeIataAirport": "AVG", "codeIcaoAirport": "YAUV", "airportId": 453}}, {"geometry": {"type": "Point", "coordinates": [-78.79139, 22.025]}, "type": "Feature", "properties": {"nameAirport": "Maximo Gomez", "codeIataAirport": "AVI", "codeIcaoAirport": "MUCA", "airportId": 454}}, {"geometry": {"type": "Point", "coordinates": [102.78333, 46.266666]}, "type": "Feature", "properties": {"nameAirport": "Arvaikheer", "codeIataAirport": "AVK", "codeIcaoAirport": "ZMAH", "airportId": 455}}, {"geometry": {"type": "Point", "coordinates": [-82.537315, 35.43508]}, "type": "Feature", "properties": {"nameAirport": "Asheville Regional Airport", "codeIataAirport": "AVL", "codeIcaoAirport": "KAVL", "airportId": 456}}, {"geometry": {"type": "Point", "coordinates": [4.9, 43.9]}, "type": "Feature", "properties": {"nameAirport": "Avignon-Caumont", "codeIataAirport": "AVN", "codeIcaoAirport": "LFMV", "airportId": 457}}, {"geometry": {"type": "Point", "coordinates": [-81.51667, 27.6]}, "type": "Feature", "properties": {"nameAirport": "Municipal", "codeIataAirport": "AVO", "codeIcaoAirport": "KAVO", "airportId": 458}}, {"geometry": {"type": "Point", "coordinates": [-75.730644, 41.336697]}, "type": "Feature", "properties": {"nameAirport": "Wilkes-Barre/Scranton International Airport", "codeIataAirport": "AVP", "codeIcaoAirport": "KAVP", "airportId": 459}}, {"geometry": {"type": "Point", "coordinates": [144.47308, -38.02637]}, "type": "Feature", "properties": {"nameAirport": "Avalon", "codeIataAirport": "AVV", "codeIcaoAirport": "YMAV", "airportId": 461}}, {"geometry": {"type": "Point", "coordinates": [-111.21667, 32.416668]}, "type": "Feature", "properties": {"nameAirport": "Avra Valley", "codeIataAirport": "AVW", "codeIcaoAirport": "KAVQ", "airportId": 462}}, {"geometry": {"type": "Point", "coordinates": [-118.31528, 33.341667]}, "type": "Feature", "properties": {"nameAirport": "Avalon Bay", "codeIataAirport": "AVX", "codeIcaoAirport": "KAVX", "airportId": 463}}, {"geometry": {"type": "Point", "coordinates": [38.4875, 7.061111]}, "type": "Feature", "properties": {"nameAirport": "Awassa", "codeIataAirport": "AWA", "codeIcaoAirport": "HALA", "airportId": 464}}, {"geometry": {"type": "Point", "coordinates": [169.5, -19.25]}, "type": "Feature", "properties": {"nameAirport": "Aniwa", "codeIataAirport": "AWD", "codeIcaoAirport": "NVVB", "airportId": 466}}, {"geometry": {"type": "Point", "coordinates": [166.63333, 19.283333]}, "type": "Feature", "properties": {"nameAirport": "Wake Island", "codeIataAirport": "AWK", "codeIcaoAirport": "PWAK", "airportId": 468}}, {"geometry": {"type": "Point", "coordinates": [-90.183334, 35.13333]}, "type": "Feature", "properties": {"nameAirport": "Municipal", "codeIataAirport": "AWM", "codeIcaoAirport": "KAWM", "airportId": 469}}, {"geometry": {"type": "Point", "coordinates": [137.75, -20.5]}, "type": "Feature", "properties": {"nameAirport": "Austral Downs", "codeIataAirport": "AWP", "codeIcaoAirport": "YAUS", "airportId": 471}}, {"geometry": {"type": "Point", "coordinates": [48.74668, 31.34292]}, "type": "Feature", "properties": {"nameAirport": "Ahwaz", "codeIataAirport": "AWZ", "codeIcaoAirport": "OIAW", "airportId": 472}}, {"geometry": {"type": "Point", "coordinates": [-63.066666, 18.216667]}, "type": "Feature", "properties": {"nameAirport": "Wallblake", "codeIataAirport": "AXA", "codeIcaoAirport": "TQPF", "airportId": 473}}, {"geometry": {"type": "Point", "coordinates": [145.2425, -22.958055]}, "type": "Feature", "properties": {"nameAirport": "Aramac", "codeIataAirport": "AXC", "codeIcaoAirport": "YAMC", "airportId": 475}}, {"geometry": {"type": "Point", "coordinates": [25.944893, 40.856785]}, "type": "Feature", "properties": {"nameAirport": "Dimokritos", "codeIataAirport": "AXD", "codeIcaoAirport": "LGAL", "airportId": 476}}, {"geometry": {"type": "Point", "coordinates": [-94.23333, 43.066666]}, "type": "Feature", "properties": {"nameAirport": "Algona", "codeIataAirport": "AXG", "codeIcaoAirport": "KAXA", "airportId": 478}}, {"geometry": {"type": "Point", "coordinates": [46.3, 13.866667]}, "type": "Feature", "properties": {"nameAirport": "Ataq", "codeIataAirport": "AXK", "codeIcaoAirport": "ODAT", "airportId": 479}}, {"geometry": {"type": "Point", "coordinates": [136.66667, -19.083332]}, "type": "Feature", "properties": {"nameAirport": "Alexandria", "codeIataAirport": "AXL", "codeIcaoAirport": "YALX", "airportId": 480}}, {"geometry": {"type": "Point", "coordinates": [-75.76804, 4.452869]}, "type": "Feature", "properties": {"nameAirport": "El Eden", "codeIataAirport": "AXM", "codeIcaoAirport": "SKAR", "airportId": 481}}, {"geometry": {"type": "Point", "coordinates": [-95.394165, 45.86722]}, "type": "Feature", "properties": {"nameAirport": "Alexandria", "codeIataAirport": "AXN", "codeIcaoAirport": "KAXN", "airportId": 482}}, {"geometry": {"type": "Point", "coordinates": [-73.96667, 22.45]}, "type": "Feature", "properties": {"nameAirport": "Springpoint Airport", "codeIataAirport": "AXP", "codeIcaoAirport": "MYAP", "airportId": 483}}, {"geometry": {"type": "Point", "coordinates": [-146.75, -15.25]}, "type": "Feature", "properties": {"nameAirport": "Arutua", "codeIataAirport": "AXR", "codeIcaoAirport": "NTGU", "airportId": 484}}, {"geometry": {"type": "Point", "coordinates": [-99.33806, 34.696667]}, "type": "Feature", "properties": {"nameAirport": "Municipal", "codeIataAirport": "AXS", "codeIcaoAirport": "KAXS", "airportId": 485}}, {"geometry": {"type": "Point", "coordinates": [140.22015, 39.61177]}, "type": "Feature", "properties": {"nameAirport": "Akita", "codeIataAirport": "AXT", "codeIcaoAirport": "RJSK", "airportId": 486}}, {"geometry": {"type": "Point", "coordinates": [38.716667, 14.120833]}, "type": "Feature", "properties": {"nameAirport": "Axum", "codeIataAirport": "AXU", "codeIcaoAirport": "HAAX", "airportId": 487}}, {"geometry": {"type": "Point", "coordinates": [-84.2, 40.566666]}, "type": "Feature", "properties": {"nameAirport": "Neil Armstrong", "codeIataAirport": "AXV", "codeIcaoAirport": "KAXV", "airportId": 488}}, {"geometry": {"type": "Point", "coordinates": [-73.933334, 1.533333]}, "type": "Feature", "properties": {"nameAirport": "Yaguara", "codeIataAirport": "AYG", "codeIcaoAirport": "SKYA", "airportId": 493}}, {"geometry": {"type": "Point", "coordinates": [66.96667, 50.316666]}, "type": "Feature", "properties": {"nameAirport": "Arkalyk", "codeIataAirport": "AYK", "codeIcaoAirport": "UAUR", "airportId": 495}}, {"geometry": {"type": "Point", "coordinates": [114.35, 36.1]}, "type": "Feature", "properties": {"nameAirport": "Anyang", "codeIataAirport": "AYN", "codeIcaoAirport": "ZHAY", "airportId": 497}}, {"geometry": {"type": "Point", "coordinates": [-74.24722, -13.197222]}, "type": "Feature", "properties": {"nameAirport": "Yanamilla", "codeIataAirport": "AYP", "codeIcaoAirport": "SPHO", "airportId": 499}}, {"geometry": {"type": "Point", "coordinates": [130.97658, -25.190878]}, "type": "Feature", "properties": {"nameAirport": "Connellan", "codeIataAirport": "AYQ", "codeIcaoAirport": "YAYE", "airportId": 500}}, {"geometry": {"type": "Point", "coordinates": [147.32445, -19.596666]}, "type": "Feature", "properties": {"nameAirport": "Ayr", "codeIataAirport": "AYR", "codeIcaoAirport": "YAYR", "airportId": 501}}, {"geometry": {"type": "Point", "coordinates": [-82.39667, 31.248611]}, "type": "Feature", "properties": {"nameAirport": "Ware County", "codeIataAirport": "AYS", "codeIcaoAirport": "KAYS", "airportId": 502}}, {"geometry": {"type": "Point", "coordinates": [30.80135, 36.89928]}, "type": "Feature", "properties": {"nameAirport": "Antalya", "codeIataAirport": "AYT", "codeIcaoAirport": "LTAI", "airportId": 503}}, {"geometry": {"type": "Point", "coordinates": [145.9, -6.333333]}, "type": "Feature", "properties": {"nameAirport": "Aiyura", "codeIataAirport": "AYU", "codeIcaoAirport": "AYAY", "airportId": 504}}, {"geometry": {"type": "Point", "coordinates": [-111.655556, 33.307777]}, "type": "Feature", "properties": {"nameAirport": "Williams Gateway", "codeIataAirport": "AZA", "codeIcaoAirport": "KIWA", "airportId": 507}}, {"geometry": {"type": "Point", "coordinates": [54.283264, 31.903603]}, "type": "Feature", "properties": {"nameAirport": "Yazd", "codeIataAirport": "AZD", "codeIcaoAirport": "OIYY", "airportId": 509}}, {"geometry": {"type": "Point", "coordinates": [54.451668, 24.419167]}, "type": "Feature", "properties": {"nameAirport": "Bateen", "codeIataAirport": "AZI", "codeIcaoAirport": "OMAD", "airportId": 511}}, {"geometry": {"type": "Point", "coordinates": [72.3, 40.733334]}, "type": "Feature", "properties": {"nameAirport": "Andizhan", "codeIataAirport": "AZN", "codeIcaoAirport": "UTKA", "airportId": 513}}, {"geometry": {"type": "Point", "coordinates": [-85.55656, 42.239964]}, "type": "Feature", "properties": {"nameAirport": "Kalamazoo/Battle Creek International", "codeIataAirport": "AZO", "codeIcaoAirport": "KAZO", "airportId": 514}}, {"geometry": {"type": "Point", "coordinates": [-0.283333, 27.883333]}, "type": "Feature", "properties": {"nameAirport": "Adrar", "codeIataAirport": "AZR", "codeIcaoAirport": "DAUA", "airportId": 516}}, {"geometry": {"type": "Point", "coordinates": [-69.736946, 19.270555]}, "type": "Feature", "properties": {"nameAirport": "Saman\u00e1 El Catey International", "codeIataAirport": "AZS", "codeIcaoAirport": "MDZY", "airportId": 517}}, {"geometry": {"type": "Point", "coordinates": [13.15, -7.883333]}, "type": "Feature", "properties": {"nameAirport": "Ambriz", "codeIataAirport": "AZZ", "codeIcaoAirport": "FNAM", "airportId": 519}}, {"geometry": {"type": "Point", "coordinates": [-121.583336, 39.15]}, "type": "Feature", "properties": {"nameAirport": "Beale AFB", "codeIataAirport": "BAB", "codeIcaoAirport": "KBAB", "airportId": 521}}, {"geometry": {"type": "Point", "coordinates": [6.666667, 44.38333]}, "type": "Feature", "properties": {"nameAirport": "Barcelonnette", "codeIataAirport": "BAE", "codeIcaoAirport": "LFMR", "airportId": 524}}, {"geometry": {"type": "Point", "coordinates": [-72.75, 42.13333]}, "type": "Feature", "properties": {"nameAirport": "Barnes", "codeIataAirport": "BAF", "codeIcaoAirport": "KBAF", "airportId": 525}}, {"geometry": {"type": "Point", "coordinates": [120.617775, 16.376667]}, "type": "Feature", "properties": {"nameAirport": "Loakan", "codeIataAirport": "BAG", "codeIcaoAirport": "RPUB", "airportId": 526}}, {"geometry": {"type": "Point", "coordinates": [50.62605, 26.26918]}, "type": "Feature", "properties": {"nameAirport": "Bahrain International", "codeIataAirport": "BAH", "codeIcaoAirport": "OBBI", "airportId": 527}}, {"geometry": {"type": "Point", "coordinates": [-83.333336, 9.166667]}, "type": "Feature", "properties": {"nameAirport": "Buenos Aires", "codeIataAirport": "BAI", "codeIcaoAirport": "MRBA", "airportId": 528}}, {"geometry": {"type": "Point", "coordinates": [41.083332, 37.916668]}, "type": "Feature", "properties": {"nameAirport": "Batman", "codeIataAirport": "BAL", "codeIcaoAirport": "LTCJ", "airportId": 530}}, {"geometry": {"type": "Point", "coordinates": [-116.933334, 40.63333]}, "type": "Feature", "properties": {"nameAirport": "Lander County", "codeIataAirport": "BAM", "codeIcaoAirport": "BAMB", "airportId": 531}}, {"geometry": {"type": "Point", "coordinates": [20.428057, -4.313333]}, "type": "Feature", "properties": {"nameAirport": "Basongo", "codeIataAirport": "BAN", "codeIcaoAirport": "FZVR", "airportId": 532}}, {"geometry": {"type": "Point", "coordinates": [-74.77618, 10.886398]}, "type": "Feature", "properties": {"nameAirport": "E Cortissoz", "codeIataAirport": "BAQ", "codeIcaoAirport": "SKBQ", "airportId": 534}}, {"geometry": {"type": "Point", "coordinates": [155.88333, -6.983333]}, "type": "Feature", "properties": {"nameAirport": "Balalae", "codeIataAirport": "BAS", "codeIcaoAirport": "AGGE", "airportId": 536}}, {"geometry": {"type": "Point", "coordinates": [-48.55, -20.55]}, "type": "Feature", "properties": {"nameAirport": "Airport Chafei Amsei", "codeIataAirport": "BAT", "codeIcaoAirport": "SNBA", "airportId": 537}}, {"geometry": {"type": "Point", "coordinates": [-49.0525, -22.343056]}, "type": "Feature", "properties": {"nameAirport": "Bauru", "codeIataAirport": "BAU", "codeIcaoAirport": "SBBU", "airportId": 538}}, {"geometry": {"type": "Point", "coordinates": [110.0009, 40.563328]}, "type": "Feature", "properties": {"nameAirport": "Baotou", "codeIataAirport": "BAV", "codeIcaoAirport": "ZBOW", "airportId": 539}}, {"geometry": {"type": "Point", "coordinates": [83.547646, 53.361088]}, "type": "Feature", "properties": {"nameAirport": "Barnaul", "codeIataAirport": "BAX", "codeIcaoAirport": "UNBB", "airportId": 541}}, {"geometry": {"type": "Point", "coordinates": [23.466667, 47.65]}, "type": "Feature", "properties": {"nameAirport": "Baia Mare", "codeIataAirport": "BAY", "codeIcaoAirport": "LRBM", "airportId": 542}}, {"geometry": {"type": "Point", "coordinates": [-62.933613, -0.966944]}, "type": "Feature", "properties": {"nameAirport": "Barbelos", "codeIataAirport": "BAZ", "codeIcaoAirport": "SWBC", "airportId": 543}}, {"geometry": {"type": "Point", "coordinates": [-71.695, -45.916668]}, "type": "Feature", "properties": {"nameAirport": "Teniente Vidal", "codeIataAirport": "BBA", "codeIcaoAirport": "SCBA", "airportId": 544}}, {"geometry": {"type": "Point", "coordinates": [-95.6, 45.316666]}, "type": "Feature", "properties": {"nameAirport": "Municipal", "codeIataAirport": "BBB", "codeIcaoAirport": "KBBB", "airportId": 545}}, {"geometry": {"type": "Point", "coordinates": [-95.96667, 28.983334]}, "type": "Feature", "properties": {"nameAirport": "Bay City", "codeIataAirport": "BBC", "codeIcaoAirport": "KBYY", "airportId": 546}}, {"geometry": {"type": "Point", "coordinates": [-99.333336, 31.133333]}, "type": "Feature", "properties": {"nameAirport": "Curtis Field", "codeIataAirport": "BBD", "codeIcaoAirport": "KBBD", "airportId": 547}}, {"geometry": {"type": "Point", "coordinates": [172.75, 3.166667]}, "type": "Feature", "properties": {"nameAirport": "Butaritari", "codeIataAirport": "BBG", "codeIcaoAirport": "NGTU", "airportId": 549}}, {"geometry": {"type": "Point", "coordinates": [12.711667, 54.33972]}, "type": "Feature", "properties": {"nameAirport": "Barth", "codeIataAirport": "BBH", "codeIcaoAirport": "EDBH", "airportId": 550}}, {"geometry": {"type": "Point", "coordinates": [85.81738, 20.252853]}, "type": "Feature", "properties": {"nameAirport": "Bhubaneswar", "codeIataAirport": "BBI", "codeIcaoAirport": "VEBS", "airportId": 551}}, {"geometry": {"type": "Point", "coordinates": [6.516667, 49.966667]}, "type": "Feature", "properties": {"nameAirport": "Bitburg Air Base", "codeIataAirport": "BBJ", "codeIcaoAirport": "EDAB", "airportId": 552}}, {"geometry": {"type": "Point", "coordinates": [25.15, -17.816668]}, "type": "Feature", "properties": {"nameAirport": "Kasane", "codeIataAirport": "BBK", "codeIcaoAirport": "FBKE", "airportId": 553}}, {"geometry": {"type": "Point", "coordinates": [103.2, 13.116667]}, "type": "Feature", "properties": {"nameAirport": "Battambang", "codeIataAirport": "BBM", "codeIcaoAirport": "VDBG", "airportId": 554}}, {"geometry": {"type": "Point", "coordinates": [115.46667, 3.683333]}, "type": "Feature", "properties": {"nameAirport": "Bario", "codeIataAirport": "BBN", "codeIcaoAirport": "WBGZ", "airportId": 555}}, {"geometry": {"type": "Point", "coordinates": [45.00639, 10.419444]}, "type": "Feature", "properties": {"nameAirport": "Berbera", "codeIataAirport": "BBO", "codeIcaoAirport": "HCMI", "airportId": 556}}, {"geometry": {"type": "Point", "coordinates": [-1.083333, 50.683334]}, "type": "Feature", "properties": {"nameAirport": "Bembridge", "codeIataAirport": "BBP", "codeIcaoAirport": "EGHJ", "airportId": 557}}, {"geometry": {"type": "Point", "coordinates": [-0.85, 51.333332]}, "type": "Feature", "properties": {"nameAirport": "Blackbushe", "codeIataAirport": "BBS", "codeIcaoAirport": "EGLK", "airportId": 560}}, {"geometry": {"type": "Point", "coordinates": [15.788056, 4.219167]}, "type": "Feature", "properties": {"nameAirport": "Berberati", "codeIataAirport": "BBT", "codeIcaoAirport": "FEFT", "airportId": 561}}, {"geometry": {"type": "Point", "coordinates": [26.080996, 44.495934]}, "type": "Feature", "properties": {"nameAirport": "Baneasa", "codeIataAirport": "BBU", "codeIcaoAirport": "LRBS", "airportId": 562}}, {"geometry": {"type": "Point", "coordinates": [-6.95, 4.666667]}, "type": "Feature", "properties": {"nameAirport": "Hkg", "codeIataAirport": "BBV", "codeIcaoAirport": "DIGN", "airportId": 563}}, {"geometry": {"type": "Point", "coordinates": [-99.63333, 41.4]}, "type": "Feature", "properties": {"nameAirport": "Broken Bow", "codeIataAirport": "BBW", "codeIcaoAirport": "KBBW", "airportId": 564}}, {"geometry": {"type": "Point", "coordinates": [-75.2675, 40.136665]}, "type": "Feature", "properties": {"nameAirport": "Wings Field", "codeIataAirport": "BBX", "codeIcaoAirport": "KLOM", "airportId": 565}}, {"geometry": {"type": "Point", "coordinates": [20.649721, 5.845833]}, "type": "Feature", "properties": {"nameAirport": "Bambari", "codeIataAirport": "BBY", "codeIcaoAirport": "FEFM", "airportId": 566}}, {"geometry": {"type": "Point", "coordinates": [23.11, -13.537222]}, "type": "Feature", "properties": {"nameAirport": "Zambezi", "codeIataAirport": "BBZ", "codeIcaoAirport": "FLZB", "airportId": 567}}, {"geometry": {"type": "Point", "coordinates": [-74.5, 20.35]}, "type": "Feature", "properties": {"nameAirport": "Baracoa", "codeIataAirport": "BCA", "codeIcaoAirport": "MUBA", "airportId": 568}}, {"geometry": {"type": "Point", "coordinates": [-80.416664, 37.233334]}, "type": "Feature", "properties": {"nameAirport": "Virginia Tech", "codeIataAirport": "BCB", "codeIcaoAirport": "KBCB", "airportId": 569}}, {"geometry": {"type": "Point", "coordinates": [122.93359, 10.644815]}, "type": "Feature", "properties": {"nameAirport": "Bacolod", "codeIataAirport": "BCD", "codeIcaoAirport": "RPVB", "airportId": 571}}, {"geometry": {"type": "Point", "coordinates": [-112.13528, 37.70111]}, "type": "Feature", "properties": {"nameAirport": "Bryce", "codeIataAirport": "BCE", "codeIcaoAirport": "KBCE", "airportId": 572}}, {"geometry": {"type": "Point", "coordinates": [18.416668, 6.75]}, "type": "Feature", "properties": {"nameAirport": "Bouca", "codeIataAirport": "BCF", "codeIcaoAirport": "FEGU", "airportId": 573}}, {"geometry": {"type": "Point", "coordinates": [126.39972, -8.491667]}, "type": "Feature", "properties": {"nameAirport": "Cakung International", "codeIataAirport": "BCH", "codeIcaoAirport": "WPEC", "airportId": 575}}, {"geometry": {"type": "Point", "coordinates": [145.30194, -23.559168]}, "type": "Feature", "properties": {"nameAirport": "Barcaldine", "codeIataAirport": "BCI", "codeIcaoAirport": "YBAR", "airportId": 576}}, {"geometry": {"type": "Point", "coordinates": [-82.96667, 10.833333]}, "type": "Feature", "properties": {"nameAirport": "Barra Colorado", "codeIataAirport": "BCL", "codeIcaoAirport": "MRBC", "airportId": 578}}, {"geometry": {"type": "Point", "coordinates": [26.881945, 46.59861]}, "type": "Feature", "properties": {"nameAirport": "Bacau", "codeIataAirport": "BCM", "codeIcaoAirport": "LRBC", "airportId": 579}}, {"geometry": {"type": "Point", "coordinates": [2.07593, 41.30303]}, "type": "Feature", "properties": {"nameAirport": "El Prat De Llobregat", "codeIataAirport": "BCN", "codeIcaoAirport": "LEBL", "airportId": 580}}, {"geometry": {"type": "Point", "coordinates": [36.55, 5.783333]}, "type": "Feature", "properties": {"nameAirport": "Jinka", "codeIataAirport": "BCO", "codeIcaoAirport": "HABC", "airportId": 581}}, {"geometry": {"type": "Point", "coordinates": [-67.38333, -8.75]}, "type": "Feature", "properties": {"nameAirport": "Boca Do Acre", "codeIataAirport": "BCR", "codeIcaoAirport": "SWNK", "airportId": 584}}, {"geometry": {"type": "Point", "coordinates": [-80.083336, 26.35]}, "type": "Feature", "properties": {"nameAirport": "Public", "codeIataAirport": "BCT", "codeIcaoAirport": "KBCT", "airportId": 586}}, {"geometry": {"type": "Point", "coordinates": [58.333332, 53.933334]}, "type": "Feature", "properties": {"nameAirport": "Beloreck", "codeIataAirport": "BCX", "codeIcaoAirport": "UWUB", "airportId": 590}}, {"geometry": {"type": "Point", "coordinates": [-64.70115, 32.35994]}, "type": "Feature", "properties": {"nameAirport": "L. F. Wade International", "codeIataAirport": "BDA", "codeIcaoAirport": "TXKF", "airportId": 593}}, {"geometry": {"type": "Point", "coordinates": [152.32187, -24.898708]}, "type": "Feature", "properties": {"nameAirport": "Bundaberg", "codeIataAirport": "BDB", "codeIcaoAirport": "YBUD", "airportId": 594}}, {"geometry": {"type": "Point", "coordinates": [-45.266666, -5.466667]}, "type": "Feature", "properties": {"nameAirport": "Barra Do Corda", "codeIataAirport": "BDC", "codeIcaoAirport": "SNBC", "airportId": 595}}, {"geometry": {"type": "Point", "coordinates": [142.17166, -10.148655]}, "type": "Feature", "properties": {"nameAirport": "Badu Island", "codeIataAirport": "BDD", "codeIcaoAirport": "YBAU", "airportId": 596}}, {"geometry": {"type": "Point", "coordinates": [-94.60694, 48.72278]}, "type": "Feature", "properties": {"nameAirport": "Baudette", "codeIataAirport": "BDE", "codeIcaoAirport": "KBDE", "airportId": 597}}, {"geometry": {"type": "Point", "coordinates": [-109.48333, 37.61667]}, "type": "Feature", "properties": {"nameAirport": "Blanding", "codeIataAirport": "BDG", "codeIcaoAirport": "KBDG", "airportId": 599}}, {"geometry": {"type": "Point", "coordinates": [54.829147, 26.529486]}, "type": "Feature", "properties": {"nameAirport": "Bandar Lengeh", "codeIataAirport": "BDH", "codeIcaoAirport": "OIBL", "airportId": 600}}, {"geometry": {"type": "Point", "coordinates": [55.216667, -3.716667]}, "type": "Feature", "properties": {"nameAirport": "Bird Island", "codeIataAirport": "BDI", "codeIcaoAirport": "FSSB", "airportId": 601}}, {"geometry": {"type": "Point", "coordinates": [114.75425, -3.43804]}, "type": "Feature", "properties": {"nameAirport": "Sjamsudin Noor", "codeIataAirport": "BDJ", "codeIcaoAirport": "WRBB", "airportId": 602}}, {"geometry": {"type": "Point", "coordinates": [-2.8, 8.033333]}, "type": "Feature", "properties": {"nameAirport": "Bondoukou", "codeIataAirport": "BDK", "codeIcaoAirport": "DIBU", "airportId": 603}}, {"geometry": {"type": "Point", "coordinates": [-72.6847, 41.92953]}, "type": "Feature", "properties": {"nameAirport": "Bradley International", "codeIataAirport": "BDL", "codeIcaoAirport": "KBDL", "airportId": 604}}, {"geometry": {"type": "Point", "coordinates": [27.977222, 40.318333]}, "type": "Feature", "properties": {"nameAirport": "Bandirma", "codeIataAirport": "BDM", "codeIcaoAirport": "LTBG", "airportId": 605}}, {"geometry": {"type": "Point", "coordinates": [68.9, 24.633333]}, "type": "Feature", "properties": {"nameAirport": "Talhar", "codeIataAirport": "BDN", "codeIcaoAirport": "OPTH", "airportId": 606}}, {"geometry": {"type": "Point", "coordinates": [107.58178, -6.904648]}, "type": "Feature", "properties": {"nameAirport": "Husein Sastranegara", "codeIataAirport": "BDO", "codeIcaoAirport": "WIIB", "airportId": 607}}, {"geometry": {"type": "Point", "coordinates": [88.083336, 26.533333]}, "type": "Feature", "properties": {"nameAirport": "Bhadrapur", "codeIataAirport": "BDP", "codeIcaoAirport": "VNCG", "airportId": 608}}, {"geometry": {"type": "Point", "coordinates": [73.2157, 22.329077]}, "type": "Feature", "properties": {"nameAirport": "Vadodara", "codeIataAirport": "BDQ", "codeIcaoAirport": "VABO", "airportId": 609}}, {"geometry": {"type": "Point", "coordinates": [-73.12444, 41.164165]}, "type": "Feature", "properties": {"nameAirport": "Igor I. Sikorsky Memorial", "codeIataAirport": "BDR", "codeIcaoAirport": "KBDR", "airportId": 610}}, {"geometry": {"type": "Point", "coordinates": [17.939053, 40.657993]}, "type": "Feature", "properties": {"nameAirport": "Papola Casale", "codeIataAirport": "BDS", "codeIcaoAirport": "LIBR", "airportId": 611}}, {"geometry": {"type": "Point", "coordinates": [22.45, 4.083333]}, "type": "Feature", "properties": {"nameAirport": "Gbadolite", "codeIataAirport": "BDT", "codeIcaoAirport": "FZFD", "airportId": 612}}, {"geometry": {"type": "Point", "coordinates": [18.54, 69.056114]}, "type": "Feature", "properties": {"nameAirport": "Bardufoss", "codeIataAirport": "BDU", "codeIcaoAirport": "ENDU", "airportId": 613}}, {"geometry": {"type": "Point", "coordinates": [29.8, -7.0]}, "type": "Feature", "properties": {"nameAirport": "Moba", "codeIataAirport": "BDV", "codeIcaoAirport": "FZRB", "airportId": 614}}, {"geometry": {"type": "Point", "coordinates": [-7.376028, 57.473415]}, "type": "Feature", "properties": {"nameAirport": "Benbecula", "codeIataAirport": "BEB", "codeIcaoAirport": "EGPL", "airportId": 619}}, {"geometry": {"type": "Point", "coordinates": [-97.333336, 37.683334]}, "type": "Feature", "properties": {"nameAirport": "Beech", "codeIataAirport": "BEC", "codeIcaoAirport": "KBEC", "airportId": 620}}, {"geometry": {"type": "Point", "coordinates": [-71.29, 42.470833]}, "type": "Feature", "properties": {"nameAirport": "Hanscom Field", "codeIataAirport": "BED", "codeIcaoAirport": "KBED", "airportId": 621}}, {"geometry": {"type": "Point", "coordinates": [-83.76861, 11.996944]}, "type": "Feature", "properties": {"nameAirport": "Bluefields", "codeIataAirport": "BEF", "codeIcaoAirport": "MNBL", "airportId": 623}}, {"geometry": {"type": "Point", "coordinates": [20.306944, 44.819443]}, "type": "Feature", "properties": {"nameAirport": "Belgrade Nikola Tesla", "codeIataAirport": "BEG", "codeIcaoAirport": "LYBE", "airportId": 624}}, {"geometry": {"type": "Point", "coordinates": [34.533333, 9.391667]}, "type": "Feature", "properties": {"nameAirport": "Beica", "codeIataAirport": "BEI", "codeIcaoAirport": "HABE", "airportId": 626}}, {"geometry": {"type": "Point", "coordinates": [117.7, 2.166667]}, "type": "Feature", "properties": {"nameAirport": "Kalimaru", "codeIataAirport": "BEJ", "codeIcaoAirport": "WALK", "airportId": 627}}, {"geometry": {"type": "Point", "coordinates": [-48.480003, -1.389865]}, "type": "Feature", "properties": {"nameAirport": "Val De Cans", "codeIataAirport": "BEL", "codeIcaoAirport": "SBBE", "airportId": 629}}, {"geometry": {"type": "Point", "coordinates": [20.26489, 32.085423]}, "type": "Feature", "properties": {"nameAirport": "Benina International", "codeIataAirport": "BEN", "codeIcaoAirport": "HLLB", "airportId": 630}}, {"geometry": {"type": "Point", "coordinates": [151.66667, -33.033333]}, "type": "Feature", "properties": {"nameAirport": "Belmont", "codeIataAirport": "BEO", "codeIcaoAirport": "YPEC", "airportId": 631}}, {"geometry": {"type": "Point", "coordinates": [76.9, 15.183333]}, "type": "Feature", "properties": {"nameAirport": "Bellary", "codeIataAirport": "BEP", "codeIcaoAirport": "VOBI", "airportId": 632}}, {"geometry": {"type": "Point", "coordinates": [-4.415827, 48.445374]}, "type": "Feature", "properties": {"nameAirport": "Brest Lesquin", "codeIataAirport": "BES", "codeIcaoAirport": "LFRB", "airportId": 634}}, {"geometry": {"type": "Point", "coordinates": [-161.83139, 60.784443]}, "type": "Feature", "properties": {"nameAirport": "Bethel Airport", "codeIataAirport": "BET", "codeIcaoAirport": "PABE", "airportId": 635}}, {"geometry": {"type": "Point", "coordinates": [139.445, -24.23]}, "type": "Feature", "properties": {"nameAirport": "Bedourie", "codeIataAirport": "BEU", "codeIcaoAirport": "YBIE", "airportId": 636}}, {"geometry": {"type": "Point", "coordinates": [34.8, 31.25]}, "type": "Feature", "properties": {"nameAirport": "Beer Sheba", "codeIataAirport": "BEV", "codeIcaoAirport": "LLBS", "airportId": 637}}, {"geometry": {"type": "Point", "coordinates": [34.90192, -19.798805]}, "type": "Feature", "properties": {"nameAirport": "Beira", "codeIataAirport": "BEW", "codeIcaoAirport": "FQBR", "airportId": 638}}, {"geometry": {"type": "Point", "coordinates": [-1.083333, 51.63333]}, "type": "Feature", "properties": {"nameAirport": "Benson (RAF Station)", "codeIataAirport": "BEX", "codeIcaoAirport": "EGUB", "airportId": 639}}, {"geometry": {"type": "Point", "coordinates": [35.49308, 33.826073]}, "type": "Feature", "properties": {"nameAirport": "Beirut Rafic Hariri Airport", "codeIataAirport": "BEY", "codeIcaoAirport": "OLBA", "airportId": 640}},