{"type": "FeatureCollection", "features": [{"geometry": {"type": "Point", "coordinates": [-145.41667, -17.05]}, "type": "Feature", "properties": {"codeIataAirport": "AAA", "codeIcaoAirport": "NTGA", "airportId": 1}}, {"geometry": {"type": "Point", "coordinates": [141.04167, -26.7]}, "type": "Feature", "properties": {"codeIataAirport": "AAB", "codeIcaoAirport": "YARY", "airportId": 2}}, {"geometry": {"type": "Point", "coordinates": [33.75, 31.133333]}, "type": "Feature", "properties": {"codeIataAirport": "AAC", "codeIcaoAirport": "HEAR", "airportId": 3}}, {"geometry": {"type": "Point", "coordinates": [7.811857, 36.821392]}, "type": "Feature", "properties": {"codeIataAirport": "AAE", "codeIcaoAirport": "DABB", "airportId": 4}}, {"geometry": {"type": "Point", "coordinates": [-84.98333, 29.733334]}, "type": "Feature", "properties": {"codeIataAirport": "AAF", "codeIcaoAirport": "KAAF", "airportId": 5}}, {"geometry": {"type": "Point", "coordinates": [-49.79, -24.103611]}, "type": "Feature", "properties": {"codeIataAirport": "AAG", "codeIcaoAirport": "SSYA", "airportId": 6}}, {"geometry": {"type": "Point", "coordinates": [6.133333, 50.75]}, "type": "Feature", "properties": {"codeIataAirport": "AAH", "codeIcaoAirport": "EDKA", "airportId": 7}}, {"geometry": {"type": "Point", "coordinates": [-46.933334, -12.916667]}, "type": "Feature", "properties": {"codeIataAirport": "AAI", "codeIcaoAirport": "SWRA", "airportId": 8}}, {"geometry": {"type": "Point", "coordinates": [173.58333, 0.166667]}, "type": "Feature", "properties": {"codeIataAirport": "AAK", "codeIcaoAirport": "NGUK", "airportId": 10}}, {"geometry": {"type": "Point", "coordinates": [9.872241, 57.08655]}, "type": "Feature", "properties": {"codeIataAirport": "AAL", "codeIcaoAirport": "EKYT", "airportId": 11}}, {"geometry": {"type": "Point", "coordinates": [31.533333, -24.8]}, "type": "Feature", "properties": {"codeIataAirport": "AAM", "codeIcaoAirport": "FAMD", "airportId": 12}}, {"geometry": {"type": "Point", "coordinates": [55.616627, 24.260231]}, "type": "Feature", "properties": {"codeIataAirport": "AAN", "codeIcaoAirport": "OMAL", "airportId": 13}}, {"geometry": {"type": "Point", "coordinates": [37.316666, 44.9]}, "type": "Feature", "properties": {"codeIataAirport": "AAQ", "codeIcaoAirport": "URKA", "airportId": 15}}, {"geometry": {"type": "Point", "coordinates": [10.626351, 56.30823]}, "type": "Feature", "properties": {"codeIataAirport": "AAR", "codeIcaoAirport": "EKAH", "airportId": 16}}, {"geometry": {"type": "Point", "coordinates": [88.08444, 47.750362]}, "type": "Feature", "properties": {"codeIataAirport": "AAT", "codeIcaoAirport": "ZWAT", "airportId": 18}}, {"geometry": {"type": "Point", "coordinates": [-46.92917, -19.568056]}, "type": "Feature", "properties": {"codeIataAirport": "AAX", "codeIcaoAirport": "SBAX", "airportId": 22}}, {"geometry": {"type": "Point", "coordinates": [52.173256, 16.19596]}, "type": "Feature", "properties": {"codeIataAirport": "AAY", "codeIcaoAirport": "OYGD", "airportId": 23}}, {"geometry": {"type": "Point", "coordinates": [-91.5, 14.87]}, "type": "Feature", "properties": {"codeIataAirport": "AAZ", "codeIcaoAirport": "MGQZ", "airportId": 24}}, {"geometry": {"type": "Point", "coordinates": [91.5, 53.716667]}, "type": "Feature", "properties": {"codeIataAirport": "ABA", "codeIcaoAirport": "UNAA", "airportId": 25}}, {"geometry": {"type": "Point", "coordinates": [-1.283333, 51.666668]}, "type": "Feature", "properties": {"codeIataAirport": "ABB", "codeIcaoAirport": "EGUD", "airportId": 26}}, {"geometry": {"type": "Point", "coordinates": [-1.863333, 38.948334]}, "type": "Feature", "properties": {"codeIataAirport": "ABC", "codeIcaoAirport": "LEAB", "airportId": 27}}, {"geometry": {"type": "Point", "coordinates": [48.226597, 30.363905]}, "type": "Feature", "properties": {"codeIataAirport": "ABD", "codeIcaoAirport": "OIAA", "airportId": 28}}, {"geometry": {"type": "Point", "coordinates": [-75.434364, 40.651573]}, "type": "Feature", "properties": {"codeIataAirport": "ABE", "codeIcaoAirport": "KABE", "airportId": 29}}, {"geometry": {"type": "Point", "coordinates": [146.63333, -23.65]}, "type": "Feature", "properties": {"codeIataAirport": "ABH", "codeIcaoAirport": "YAPH", "airportId": 32}}, {"geometry": {"type": "Point", "coordinates": [-99.679726, 32.409443]}, "type": "Feature", "properties": {"codeIataAirport": "ABI", "codeIcaoAirport": "KABI", "airportId": 33}}, {"geometry": {"type": "Point", "coordinates": [-3.933015, 5.254879]}, "type": "Feature", "properties": {"codeIataAirport": "ABJ", "codeIcaoAirport": "DIAP", "airportId": 34}}, {"geometry": {"type": "Point", "coordinates": [44.26611, 6.733889]}, "type": "Feature", "properties": {"codeIataAirport": "ABK", "codeIcaoAirport": "HADK", "airportId": 35}}, {"geometry": {"type": "Point", "coordinates": [-157.84584, 67.0875]}, "type": "Feature", "properties": {"codeIataAirport": "ABL", "codeIcaoAirport": "PAFM", "airportId": 36}}, {"geometry": {"type": "Point", "coordinates": [142.45033, -10.942619]}, "type": "Feature", "properties": {"codeIataAirport": "ABM", "codeIcaoAirport": "YBAM", "airportId": 37}}, {"geometry": {"type": "Point", "coordinates": [-3.216667, 5.433333]}, "type": "Feature", "properties": {"codeIataAirport": "ABO", "codeIcaoAirport": "DIAO", "airportId": 39}}, {"geometry": {"type": "Point", "coordinates": [-106.617195, 35.049625]}, "type": "Feature", "properties": {"codeIataAirport": "ABQ", "codeIcaoAirport": "KABQ", "airportId": 41}}, {"geometry": {"type": "Point", "coordinates": [-98.42611, 45.4525]}, "type": "Feature", "properties": {"codeIataAirport": "ABR", "codeIcaoAirport": "KABR", "airportId": 42}}, {"geometry": {"type": "Point", "coordinates": [31.609774, 22.367567]}, "type": "Feature", "properties": {"codeIataAirport": "ABS", "codeIcaoAirport": "HEBL", "airportId": 43}}, {"geometry": {"type": "Point", "coordinates": [41.64002, 20.29401]}, "type": "Feature", "properties": {"codeIataAirport": "ABT", "codeIcaoAirport": "OEBA", "airportId": 44}}, {"geometry": {"type": "Point", "coordinates": [124.88333, -9.133333]}, "type": "Feature", "properties": {"codeIataAirport": "ABU", "codeIcaoAirport": "WATA", "airportId": 45}}, {"geometry": {"type": "Point", "coordinates": [7.270447, 9.004614]}, "type": "Feature", "properties": {"codeIataAirport": "ABV", "codeIcaoAirport": "DNAA", "airportId": 46}}, {"geometry": {"type": "Point", "coordinates": [146.95453, -36.069626]}, "type": "Feature", "properties": {"codeIataAirport": "ABX", "codeIcaoAirport": "YMAY", "airportId": 48}}, {"geometry": {"type": "Point", "coordinates": [-84.19611, 31.532223]}, "type": "Feature", "properties": {"codeIataAirport": "ABY", "codeIcaoAirport": "KABY", "airportId": 49}}, {"geometry": {"type": "Point", "coordinates": [-2.204186, 57.200253]}, "type": "Feature", "properties": {"codeIataAirport": "ABZ", "codeIcaoAirport": "EGPD", "airportId": 50}}, {"geometry": {"type": "Point", "coordinates": [-99.75459, 16.762403]}, "type": "Feature", "properties": {"codeIataAirport": "ACA", "codeIcaoAirport": "MMAA", "airportId": 51}}, {"geometry": {"type": "Point", "coordinates": [-85.21667, 44.983334]}, "type": "Feature", "properties": {"codeIataAirport": "ACB", "codeIcaoAirport": "KACB", "airportId": 52}}, {"geometry": {"type": "Point", "coordinates": [-0.171769, 5.60737]}, "type": "Feature", "properties": {"codeIataAirport": "ACC", "codeIcaoAirport": "DGAA", "airportId": 53}}, {"geometry": {"type": "Point", "coordinates": [-77.3, 8.516667]}, "type": "Feature", "properties": {"codeIataAirport": "ACD", "codeIcaoAirport": "SKAD", "airportId": 54}}, {"geometry": {"type": "Point", "coordinates": [-13.609059, 28.950668]}, "type": "Feature", "properties": {"codeIataAirport": "ACE", "codeIcaoAirport": "GCRR", "airportId": 55}}, {"geometry": {"type": "Point", "coordinates": [9.566667, 47.483334]}, "type": "Feature", "properties": {"codeIataAirport": "ACH", "codeIcaoAirport": "LSZR", "airportId": 56}}, {"geometry": {"type": "Point", "coordinates": [-2.215369, 49.709347]}, "type": "Feature", "properties": {"codeIataAirport": "ACI", "codeIcaoAirport": "EGJA", "airportId": 57}}, {"geometry": {"type": "Point", "coordinates": [80.38333, 8.35]}, "type": "Feature", "properties": {"codeIataAirport": "ACJ", "codeIcaoAirport": "VCCA", "airportId": 58}}, {"geometry": {"type": "Point", "coordinates": [-70.05972, 41.256668]}, "type": "Feature", "properties": {"codeIataAirport": "ACK", "codeIcaoAirport": "KACK", "airportId": 59}}, {"geometry": {"type": "Point", "coordinates": [-100.916664, 29.3]}, "type": "Feature", "properties": {"codeIataAirport": "ACN", "codeIcaoAirport": "MMCC", "airportId": 62}}, {"geometry": {"type": "Point", "coordinates": [46.145115, 37.347244]}, "type": "Feature", "properties": {"codeIataAirport": "ACP", "codeIcaoAirport": "OITM", "airportId": 63}}, {"geometry": {"type": "Point", "coordinates": [-72.3, -0.383333]}, "type": "Feature", "properties": {"codeIataAirport": "ACR", "codeIcaoAirport": "SKAC", "airportId": 64}}, {"geometry": {"type": "Point", "coordinates": [90.566666, 56.266666]}, "type": "Feature", "properties": {"codeIataAirport": "ACS", "codeIcaoAirport": "UNKS", "airportId": 65}}, {"geometry": {"type": "Point", "coordinates": [-97.22321, 31.609133]}, "type": "Feature", "properties": {"codeIataAirport": "ACT", "codeIcaoAirport": "KACT", "airportId": 66}}, {"geometry": {"type": "Point", "coordinates": [-124.106926, 40.970913]}, "type": "Feature", "properties": {"codeIataAirport": "ACV", "codeIcaoAirport": "KACV", "airportId": 68}}, {"geometry": {"type": "Point", "coordinates": [-74.572235, 39.450703]}, "type": "Feature", "properties": {"codeIataAirport": "ACY", "codeIcaoAirport": "KACY", "airportId": 70}}, {"geometry": {"type": "Point", "coordinates": [61.542244, 31.087694]}, "type": "Feature", "properties": {"codeIataAirport": "ACZ", "codeIcaoAirport": "OIZB", "airportId": 71}}, {"geometry": {"type": "Point", "coordinates": [35.29736, 36.98503]}, "type": "Feature", "properties": {"codeIataAirport": "ADA", "codeIcaoAirport": "LTAF", "airportId": 72}}, {"geometry": {"type": "Point", "coordinates": [27.147594, 38.294403]}, "type": "Feature", "properties": {"codeIataAirport": "ADB", "codeIcaoAirport": "LTBJ", "airportId": 73}}, {"geometry": {"type": "Point", "coordinates": [38.7959, 8.983759]}, "type": "Feature", "properties": {"codeIataAirport": "ADD", "codeIcaoAirport": "HAAB", "airportId": 75}}, {"geometry": {"type": "Point", "coordinates": [45.037537, 12.826116]}, "type": "Feature", "properties": {"codeIataAirport": "ADE", "codeIcaoAirport": "OYAA", "airportId": 76}}, {"geometry": {"type": "Point", "coordinates": [38.266666, 37.75]}, "type": "Feature", "properties": {"codeIataAirport": "ADF", "codeIcaoAirport": "LTCP", "airportId": 77}}, {"geometry": {"type": "Point", "coordinates": [-84.03333, 41.9]}, "type": "Feature", "properties": {"codeIataAirport": "ADG", "codeIcaoAirport": "KADG", "airportId": 78}}, {"geometry": {"type": "Point", "coordinates": [125.4, 58.6]}, "type": "Feature", "properties": {"codeIataAirport": "ADH", "codeIcaoAirport": "UEEA", "airportId": 79}}, {"geometry": {"type": "Point", "coordinates": [15.0, -22.4]}, "type": "Feature", "properties": {"codeIataAirport": "ADI", "codeIcaoAirport": "FYAR", "airportId": 80}}, {"geometry": {"type": "Point", "coordinates": [35.98277, 31.97533]}, "type": "Feature", "properties": {"codeIataAirport": "ADJ", "codeIcaoAirport": "OJAM", "airportId": 81}}, {"geometry": {"type": "Point", "coordinates": [-176.64473, 51.88278]}, "type": "Feature", "properties": {"codeIataAirport": "ADK", "codeIcaoAirport": "PADK", "airportId": 82}}, {"geometry": {"type": "Point", "coordinates": [138.53735, -34.938175]}, "type": "Feature", "properties": {"codeIataAirport": "ADL", "codeIcaoAirport": "YPAD", "airportId": 83}}, {"geometry": {"type": "Point", "coordinates": [-97.01945, 34.303055]}, "type": "Feature", "properties": {"codeIataAirport": "ADM", "codeIcaoAirport": "KADM", "airportId": 84}}, {"geometry": {"type": "Point", "coordinates": [137.15, -31.016666]}, "type": "Feature", "properties": {"codeIataAirport": "ADO", "codeIcaoAirport": "YAMK", "airportId": 86}}, {"geometry": {"type": "Point", "coordinates": [-152.51297, 57.755276]}, "type": "Feature", "properties": {"codeIataAirport": "ADQ", "codeIcaoAirport": "PADQ", "airportId": 88}}, {"geometry": {"type": "Point", "coordinates": [-79.566666, 33.45]}, "type": "Feature", "properties": {"codeIataAirport": "ADR", "codeIcaoAirport": "KPHH", "airportId": 89}}, {"geometry": {"type": "Point", "coordinates": [-97.3, 32.783333]}, "type": "Feature", "properties": {"codeIataAirport": "ADS", "codeIcaoAirport": "KADS", "airportId": 90}}, {"geometry": {"type": "Point", "coordinates": [-96.666664, 34.8]}, "type": "Feature", "properties": {"codeIataAirport": "ADT", "codeIcaoAirport": "KADH", "airportId": 91}}, {"geometry": {"type": "Point", "coordinates": [48.42125, 38.323826]}, "type": "Feature", "properties": {"codeIataAirport": "ADU", "codeIcaoAirport": "OITL", "airportId": 92}}, {"geometry": {"type": "Point", "coordinates": [-2.866667, 56.36667]}, "type": "Feature", "properties": {"codeIataAirport": "ADX", "codeIcaoAirport": "EGQL", "airportId": 94}}, {"geometry": {"type": "Point", "coordinates": [29.05, -22.666668]}, "type": "Feature", "properties": {"codeIataAirport": "ADY", "codeIcaoAirport": "FAAL", "airportId": 95}}, {"geometry": {"type": "Point", "coordinates": [-81.70221, 12.586047]}, "type": "Feature", "properties": {"codeIataAirport": "ADZ", "codeIcaoAirport": "SKSP", "airportId": 96}}, {"geometry": {"type": "Point", "coordinates": [173.85, 0.483333]}, "type": "Feature", "properties": {"codeIataAirport": "AEA", "codeIcaoAirport": "NGTB", "airportId": 97}}, {"geometry": {"type": "Point", "coordinates": [99.416664, 1.399722]}, "type": "Feature", "properties": {"codeIataAirport": "AEG", "codeIcaoAirport": "WIME", "airportId": 101}}, {"geometry": {"type": "Point", "coordinates": [20.850834, 13.851389]}, "type": "Feature", "properties": {"codeIataAirport": "AEH", "codeIcaoAirport": "FTTC", "airportId": 102}}, {"geometry": {"type": "Point", "coordinates": [-93.36667, 43.65]}, "type": "Feature", "properties": {"codeIataAirport": "AEL", "codeIcaoAirport": "KAEL", "airportId": 105}}, {"geometry": {"type": "Point", "coordinates": [-9.635556, 16.709167]}, "type": "Feature", "properties": {"codeIataAirport": "AEO", "codeIcaoAirport": "GQNA", "airportId": 106}}, {"geometry": {"type": "Point", "coordinates": [-58.41667, -34.55622]}, "type": "Feature", "properties": {"codeIataAirport": "AEP", "codeIcaoAirport": "SABE", "airportId": 107}}, {"geometry": {"type": "Point", "coordinates": [39.941105, 43.44884]}, "type": "Feature", "properties": {"codeIataAirport": "AER", "codeIcaoAirport": "URSS", "airportId": 108}}, {"geometry": {"type": "Point", "coordinates": [6.116605, 62.559643]}, "type": "Feature", "properties": {"codeIataAirport": "AES", "codeIcaoAirport": "ENAL", "airportId": 109}}, {"geometry": {"type": "Point", "coordinates": [-152.65834, 66.56167]}, "type": "Feature", "properties": {"codeIataAirport": "AET", "codeIcaoAirport": "PFAL", "airportId": 110}}, {"geometry": {"type": "Point", "coordinates": [55.041668, 25.8875]}, "type": "Feature", "properties": {"codeIataAirport": "AEU", "codeIcaoAirport": "OIBA", "airportId": 111}}, {"geometry": {"type": "Point", "coordinates": [-92.53958, 31.321268]}, "type": "Feature", "properties": {"codeIataAirport": "AEX", "codeIcaoAirport": "KAEX", "airportId": 112}}, {"geometry": {"type": "Point", "coordinates": [-18.075068, 65.654564]}, "type": "Feature", "properties": {"codeIataAirport": "AEY", "codeIcaoAirport": "BIAR", "airportId": 113}}, {"geometry": {"type": "Point", "coordinates": [-68.40056, -34.58917]}, "type": "Feature", "properties": {"codeIataAirport": "AFA", "codeIcaoAirport": "SAMR", "airportId": 114}}, {"geometry": {"type": "Point", "coordinates": [26.883333, -33.583332]}, "type": "Feature", "properties": {"codeIataAirport": "AFD", "codeIcaoAirport": "FAPA", "airportId": 115}}, {"geometry": {"type": "Point", "coordinates": [-104.7, 38.833332]}, "type": "Feature", "properties": {"codeIataAirport": "AFF", "codeIcaoAirport": "KAFF", "airportId": 116}}, {"geometry": {"type": "Point", "coordinates": [-75.066666, 6.916667]}, "type": "Feature", "properties": {"codeIataAirport": "AFI", "codeIcaoAirport": "SKAM", "airportId": 117}}, {"geometry": {"type": "Point", "coordinates": [-56.104767, -9.872456]}, "type": "Feature", "properties": {"codeIataAirport": "AFL", "codeIcaoAirport": "SBAT", "airportId": 119}}, {"geometry": {"type": "Point", "coordinates": [-72.066666, 42.833332]}, "type": "Feature", "properties": {"codeIataAirport": "AFN", "codeIcaoAirport": "KAFN", "airportId": 120}}, {"geometry": {"type": "Point", "coordinates": [-110.933334, 42.733334]}, "type": "Feature", "properties": {"codeIataAirport": "AFO", "codeIcaoAirport": "KAFO", "airportId": 121}}, {"geometry": {"type": "Point", "coordinates": [64.233055, 41.61361]}, "type": "Feature", "properties": {"codeIataAirport": "AFS", "codeIcaoAirport": "UTSN", "airportId": 123}}, {"geometry": {"type": "Point", "coordinates": [160.85, -9.2]}, "type": "Feature", "properties": {"codeIataAirport": "AFT", "codeIcaoAirport": "AGAF", "airportId": 124}}, {"geometry": {"type": "Point", "coordinates": [-97.316666, 32.986668]}, "type": "Feature", "properties": {"codeIataAirport": "AFW", "codeIcaoAirport": "KAFW", "airportId": 125}}, {"geometry": {"type": "Point", "coordinates": [30.6, 38.733334]}, "type": "Feature", "properties": {"codeIataAirport": "AFY", "codeIcaoAirport": "LTAH", "airportId": 126}}, {"geometry": {"type": "Point", "coordinates": [57.60332, 36.171513]}, "type": "Feature", "properties": {"codeIataAirport": "AFZ", "codeIcaoAirport": "OIMS", "airportId": 127}}, {"geometry": {"type": "Point", "coordinates": [-9.555895, 30.378326]}, "type": "Feature", "properties": {"codeIataAirport": "AGA", "codeIcaoAirport": "GMAD", "airportId": 128}}, {"geometry": {"type": "Point", "coordinates": [10.931667, 48.425278]}, "type": "Feature", "properties": {"codeIataAirport": "AGB", "codeIcaoAirport": "EDMA", "airportId": 129}}, {"geometry": {"type": "Point", "coordinates": [-79.93, 40.35472]}, "type": "Feature", "properties": {"codeIataAirport": "AGC", "codeIcaoAirport": "KAGC", "airportId": 130}}, {"geometry": {"type": "Point", "coordinates": [0.598611, 44.17361]}, "type": "Feature", "properties": {"codeIataAirport": "AGF", "codeIcaoAirport": "LFBA", "airportId": 133}}, {"geometry": {"type": "Point", "coordinates": [12.8625, 56.293056]}, "type": "Feature", "properties": {"codeIataAirport": "AGH", "codeIcaoAirport": "ESDB", "airportId": 135}}, {"geometry": {"type": "Point", "coordinates": [-56.833332, 5.833333]}, "type": "Feature", "properties": {"codeIataAirport": "AGI", "codeIcaoAirport": "SMWA", "airportId": 136}}, {"geometry": {"type": "Point", "coordinates": [127.23805, 26.589722]}, "type": "Feature", "properties": {"codeIataAirport": "AGJ", "codeIcaoAirport": "RORA", "airportId": 137}}, {"geometry": {"type": "Point", "coordinates": [149.15527, -9.340278]}, "type": "Feature", "properties": {"codeIataAirport": "AGL", "codeIcaoAirport": "AYWG", "airportId": 139}}, {"geometry": {"type": "Point", "coordinates": [-37.683334, 65.6]}, "type": "Feature", "properties": {"codeIataAirport": "AGM", "codeIcaoAirport": "BGAM", "airportId": 140}}, {"geometry": {"type": "Point", "coordinates": [-134.58333, 57.503887]}, "type": "Feature", "properties": {"codeIataAirport": "AGN", "codeIcaoAirport": "PAGN", "airportId": 141}}, {"geometry": {"type": "Point", "coordinates": [-93.23333, 33.266666]}, "type": "Feature", "properties": {"codeIataAirport": "AGO", "codeIcaoAirport": "KAGO", "airportId": 142}}, {"geometry": {"type": "Point", "coordinates": [-4.489616, 36.675182]}, "type": "Feature", "properties": {"codeIataAirport": "AGP", "codeIcaoAirport": "LEMG", "airportId": 143}}, {"geometry": {"type": "Point", "coordinates": [77.962776, 27.158333]}, "type": "Feature", "properties": {"codeIataAirport": "AGR", "codeIcaoAirport": "VIAG", "airportId": 144}}, {"geometry": {"type": "Point", "coordinates": [-81.973434, 33.373665]}, "type": "Feature", "properties": {"codeIataAirport": "AGS", "codeIcaoAirport": "KAGS", "airportId": 145}}, {"geometry": {"type": "Point", "coordinates": [-54.833332, -25.5]}, "type": "Feature", "properties": {"codeIataAirport": "AGT", "codeIcaoAirport": "SGES", "airportId": 146}}, {"geometry": {"type": "Point", "coordinates": [-102.31374, 21.701416]}, "type": "Feature", "properties": {"codeIataAirport": "AGU", "codeIcaoAirport": "MMAS", "airportId": 147}}, {"geometry": {"type": "Point", "coordinates": [-69.23333, 9.552222]}, "type": "Feature", "properties": {"codeIataAirport": "AGV", "codeIcaoAirport": "SVAC", "airportId": 148}}, {"geometry": {"type": "Point", "coordinates": [72.17987, 10.828967]}, "type": "Feature", "properties": {"codeIataAirport": "AGX", "codeIcaoAirport": "VOAT", "airportId": 150}}, {"geometry": {"type": "Point", "coordinates": [18.85, -29.05]}, "type": "Feature", "properties": {"codeIataAirport": "AGZ", "codeIcaoAirport": "FAAG", "airportId": 151}}, {"geometry": {"type": "Point", "coordinates": [42.657574, 18.23429]}, "type": "Feature", "properties": {"codeIataAirport": "AHB", "codeIcaoAirport": "OEAB", "airportId": 153}}, {"geometry": {"type": "Point", "coordinates": [-97.13333, 34.166668]}, "type": "Feature", "properties": {"codeIataAirport": "AHD", "codeIcaoAirport": "K1F0", "airportId": 155}}, {"geometry": {"type": "Point", "coordinates": [-146.25694, -14.428056]}, "type": "Feature", "properties": {"codeIataAirport": "AHE", "codeIcaoAirport": "NTHE", "airportId": 156}}, {"geometry": {"type": "Point", "coordinates": [-92.35, 45.3]}, "type": "Feature", "properties": {"codeIataAirport": "AHH", "codeIcaoAirport": "KAHH", "airportId": 158}}, {"geometry": {"type": "Point", "coordinates": [128.91667, -3.333333]}, "type": "Feature", "properties": {"codeIataAirport": "AHI", "codeIcaoAirport": "WAPA", "airportId": 159}}, {"geometry": {"type": "Point", "coordinates": [-59.316666, 2.483333]}, "type": "Feature", "properties": {"codeIataAirport": "AHL", "codeIcaoAirport": "SYAH", "airportId": 160}}, {"geometry": {"type": "Point", "coordinates": [-83.32472, 33.95195]}, "type": "Feature", "properties": {"codeIataAirport": "AHN", "codeIcaoAirport": "KAHN", "airportId": 162}}, {"geometry": {"type": "Point", "coordinates": [8.295891, 40.630405]}, "type": "Feature", "properties": {"codeIataAirport": "AHO", "codeIcaoAirport": "LIEA", "airportId": 163}}, {"geometry": {"type": "Point", "coordinates": [-84.425, 15.441667]}, "type": "Feature", "properties": {"codeIataAirport": "AHS", "codeIcaoAirport": "MHAH", "airportId": 164}}, {"geometry": {"type": "Point", "coordinates": [-3.836944, 35.17972]}, "type": "Feature", "properties": {"codeIataAirport": "AHU", "codeIcaoAirport": "GMTA", "airportId": 165}}, {"geometry": {"type": "Point", "coordinates": [6.083333, 45.083332]}, "type": "Feature", "properties": {"codeIataAirport": "AHZ", "codeIcaoAirport": "LFHU", "airportId": 168}}, {"geometry": {"type": "Point", "coordinates": [-102.80666, 42.051666]}, "type": "Feature", "properties": {"codeIataAirport": "AIA", "codeIcaoAirport": "KAIA", "airportId": 169}}, {"geometry": {"type": "Point", "coordinates": [-85.683334, 40.166668]}, "type": "Feature", "properties": {"codeIataAirport": "AID", "codeIcaoAirport": "KAID", "airportId": 172}}, {"geometry": {"type": "Point", "coordinates": [-50.416668, -22.666668]}, "type": "Feature", "properties": {"codeIataAirport": "AIF", "codeIcaoAirport": "SNAX", "airportId": 174}}, {"geometry": {"type": "Point", "coordinates": [23.25, 6.516667]}, "type": "Feature", "properties": {"codeIataAirport": "AIG", "codeIcaoAirport": "FEFY", "airportId": 175}}, {"geometry": {"type": "Point", "coordinates": [42.716667, 11.15]}, "type": "Feature", "properties": {"codeIataAirport": "AII", "codeIcaoAirport": "HDAS", "airportId": 177}}, {"geometry": {"type": "Point", "coordinates": [-81.71667, 33.566666]}, "type": "Feature", "properties": {"codeIataAirport": "AIK", "codeIcaoAirport": "KAIK", "airportId": 178}}, {"geometry": {"type": "Point", "coordinates": [-160.03334, 70.63333]}, "type": "Feature", "properties": {"codeIataAirport": "AIN", "codeIcaoAirport": "PAWT", "airportId": 181}}, {"geometry": {"type": "Point", "coordinates": [-95.01667, 41.4]}, "type": "Feature", "properties": {"codeIataAirport": "AIO", "codeIcaoAirport": "KAIO", "airportId": 182}}, {"geometry": {"type": "Point", "coordinates": [-59.38333, -10.25]}, "type": "Feature", "properties": {"codeIataAirport": "AIR", "codeIcaoAirport": "SWRP", "airportId": 184}}, {"geometry": {"type": "Point", "coordinates": [176.83333, -2.65]}, "type": "Feature", "properties": {"codeIataAirport": "AIS", "codeIcaoAirport": "NGTR", "airportId": 185}}, {"geometry": {"type": "Point", "coordinates": [-159.767, -18.829443]}, "type": "Feature", "properties": {"codeIataAirport": "AIT", "codeIcaoAirport": "NCAI", "airportId": 186}}, {"geometry": {"type": "Point", "coordinates": [-158.1, -20.033333]}, "type": "Feature", "properties": {"codeIataAirport": "AIU", "codeIcaoAirport": "NCAT", "airportId": 187}}, {"geometry": {"type": "Point", "coordinates": [-88.15, 33.13333]}, "type": "Feature", "properties": {"codeIataAirport": "AIV", "codeIcaoAirport": "KAIV", "airportId": 188}}, {"geometry": {"type": "Point", "coordinates": [-92.54722, 38.09833]}, "type": "Feature", "properties": {"codeIataAirport": "AIZ", "codeIcaoAirport": "KAIZ", "airportId": 190}}, {"geometry": {"type": "Point", "coordinates": [8.794013, 41.91987]}, "type": "Feature", "properties": {"codeIataAirport": "AJA", "codeIcaoAirport": "LFKJ", "airportId": 191}}, {"geometry": {"type": "Point", "coordinates": [40.101486, 29.788668]}, "type": "Feature", "properties": {"codeIataAirport": "AJF", "codeIcaoAirport": "OESK", "airportId": 192}}, {"geometry": {"type": "Point", "coordinates": [43.025, 39.65]}, "type": "Feature", "properties": {"codeIataAirport": "AJI", "codeIcaoAirport": "LTCO", "airportId": 193}}, {"geometry": {"type": "Point", "coordinates": [-14.374444, 19.730556]}, "type": "Feature", "properties": {"codeIataAirport": "AJJ", "codeIcaoAirport": "GQNJ", "airportId": 194}}, {"geometry": {"type": "Point", "coordinates": [49.833332, 34.13333]}, "type": "Feature", "properties": {"codeIataAirport": "AJK", "codeIcaoAirport": "OIHR", "airportId": 195}}, {"geometry": {"type": "Point", "coordinates": [92.62482, 23.838985]}, "type": "Feature", "properties": {"codeIataAirport": "AJL", "codeIcaoAirport": "VEAZ", "airportId": 196}}, {"geometry": {"type": "Point", "coordinates": [44.42972, -12.126389]}, "type": "Feature", "properties": {"codeIataAirport": "AJN", "codeIcaoAirport": "FMCV", "airportId": 197}}, {"geometry": {"type": "Point", "coordinates": [19.285557, 65.59139]}, "type": "Feature", "properties": {"codeIataAirport": "AJR", "codeIcaoAirport": "ESNX", "airportId": 198}}, {"geometry": {"type": "Point", "coordinates": [-37.072792, -10.987206]}, "type": "Feature", "properties": {"codeIataAirport": "AJU", "codeIcaoAirport": "SBAR", "airportId": 200}}, {"geometry": {"type": "Point", "coordinates": [7.993056, 16.964167]}, "type": "Feature", "properties": {"codeIataAirport": "AJY", "codeIcaoAirport": "DRZA", "airportId": 201}}, {"geometry": {"type": "Point", "coordinates": [108.936, 32.7091]}, "type": "Feature", "properties": {"codeIataAirport": "AKA", "codeIcaoAirport": "ZLAK", "airportId": 202}}, {"geometry": {"type": "Point", "coordinates": [-174.20084, 52.21722]}, "type": "Feature", "properties": {"codeIataAirport": "AKB", "codeIcaoAirport": "PAAK", "airportId": 203}}, {"geometry": {"type": "Point", "coordinates": [-81.46778, 41.04]}, "type": "Feature", "properties": {"codeIataAirport": "AKC", "codeIcaoAirport": "KAKR", "airportId": 204}}, {"geometry": {"type": "Point", "coordinates": [77.083336, 20.666668]}, "type": "Feature", "properties": {"codeIataAirport": "AKD", "codeIcaoAirport": "VAAK", "airportId": 205}}, {"geometry": {"type": "Point", "coordinates": [23.333332, 24.2]}, "type": "Feature", "properties": {"codeIataAirport": "AKF", "codeIcaoAirport": "HLKF", "airportId": 207}}, {"geometry": {"type": "Point", "coordinates": [47.580555, 24.063334]}, "type": "Feature", "properties": {"codeIataAirport": "AKH", "codeIcaoAirport": "OEPS", "airportId": 209}}, {"geometry": {"type": "Point", "coordinates": [-161.22333, 60.905556]}, "type": "Feature", "properties": {"codeIataAirport": "AKI", "codeIcaoAirport": "PFAK", "airportId": 210}}, {"geometry": {"type": "Point", "coordinates": [142.45454, 43.67109]}, "type": "Feature", "properties": {"codeIataAirport": "AKJ", "codeIcaoAirport": "RJEC", "airportId": 211}}, {"geometry": {"type": "Point", "coordinates": [-154.16667, 56.944443]}, "type": "Feature", "properties": {"codeIataAirport": "AKK", "codeIcaoAirport": "PAKH", "airportId": 212}}, {"geometry": {"type": "Point", "coordinates": [174.78352, -37.004787]}, "type": "Feature", "properties": {"codeIataAirport": "AKL", "codeIcaoAirport": "NZAA", "airportId": 213}}, {"geometry": {"type": "Point", "coordinates": [-156.66902, 58.68274]}, "type": "Feature", "properties": {"codeIataAirport": "AKN", "codeIcaoAirport": "PAKN", "airportId": 215}}, {"geometry": {"type": "Point", "coordinates": [-103.21667, 40.166668]}, "type": "Feature", "properties": {"codeIataAirport": "AKO", "codeIcaoAirport": "KAKO", "airportId": 216}}, {"geometry": {"type": "Point", "coordinates": [-151.74, 68.1375]}, "type": "Feature", "properties": {"codeIataAirport": "AKP", "codeIcaoAirport": "PAKP", "airportId": 217}}, {"geometry": {"type": "Point", "coordinates": [5.083333, 7.25]}, "type": "Feature", "properties": {"codeIataAirport": "AKR", "codeIcaoAirport": "DNAK", "airportId": 219}}, {"geometry": {"type": "Point", "coordinates": [160.68083, -8.697778]}, "type": "Feature", "properties": {"codeIataAirport": "AKS", "codeIcaoAirport": "AGGA", "airportId": 220}}, {"geometry": {"type": "Point", "coordinates": [32.983334, 34.583332]}, "type": "Feature", "properties": {"codeIataAirport": "AKT", "codeIcaoAirport": "LCRA", "airportId": 221}}, {"geometry": {"type": "Point", "coordinates": [80.29262, 41.259983]}, "type": "Feature", "properties": {"codeIataAirport": "AKU", "codeIcaoAirport": "ZWAK", "airportId": 222}}, {"geometry": {"type": "Point", "coordinates": [-78.583336, 60.733334]}, "type": "Feature", "properties": {"codeIataAirport": "AKV", "codeIcaoAirport": "CYKO", "airportId": 223}}, {"geometry": {"type": "Point", "coordinates": [57.211403, 50.249336]}, "type": "Feature", "properties": {"codeIataAirport": "AKX", "codeIcaoAirport": "UATT", "airportId": 225}}, {"geometry": {"type": "Point", "coordinates": [92.88028, 20.130278]}, "type": "Feature", "properties": {"codeIataAirport": "AKY", "codeIcaoAirport": "VYSW", "airportId": 226}}, {"geometry": {"type": "Point", "coordinates": [77.01145, 43.346653]}, "type": "Feature", "properties": {"codeIataAirport": "ALA", "codeIcaoAirport": "UAAA", "airportId": 227}}, {"geometry": {"type": "Point", "coordinates": [-73.809555, 42.745277]}, "type": "Feature", "properties": {"codeIataAirport": "ALB", "codeIcaoAirport": "KALB", "airportId": 228}}, {"geometry": {"type": "Point", "coordinates": [-0.557381, 38.287098]}, "type": "Feature", "properties": {"codeIataAirport": "ALC", "codeIcaoAirport": "LEAL", "airportId": 229}}, {"geometry": {"type": "Point", "coordinates": [-69.333336, -11.683333]}, "type": "Feature", "properties": {"codeIataAirport": "ALD", "codeIcaoAirport": "SPAR", "airportId": 230}}, {"geometry": {"type": "Point", "coordinates": [-103.75, 30.416668]}, "type": "Feature", "properties": {"codeIataAirport": "ALE", "codeIcaoAirport": "KE38", "airportId": 231}}, {"geometry": {"type": "Point", "coordinates": [23.355808, 69.977165]}, "type": "Feature", "properties": {"codeIataAirport": "ALF", "codeIcaoAirport": "ENAT", "airportId": 232}}, {"geometry": {"type": "Point", "coordinates": [3.21167, 36.70058]}, "type": "Feature", "properties": {"codeIataAirport": "ALG", "codeIcaoAirport": "DAAG", "airportId": 233}}, {"geometry": {"type": "Point", "coordinates": [117.804, -34.944996]}, "type": "Feature", "properties": {"codeIataAirport": "ALH", "codeIcaoAirport": "YABA", "airportId": 234}}, {"geometry": {"type": "Point", "coordinates": [-98.066666, 27.75]}, "type": "Feature", "properties": {"codeIataAirport": "ALI", "codeIcaoAirport": "KALI", "airportId": 235}}, {"geometry": {"type": "Point", "coordinates": [16.536388, -28.567223]}, "type": "Feature", "properties": {"codeIataAirport": "ALJ", "codeIcaoAirport": "FAAB", "airportId": 236}}, {"geometry": {"type": "Point", "coordinates": [8.216667, 44.05]}, "type": "Feature", "properties": {"codeIataAirport": "ALL", "codeIcaoAirport": "LIMG", "airportId": 238}}, {"geometry": {"type": "Point", "coordinates": [-105.985275, 32.845833]}, "type": "Feature", "properties": {"codeIataAirport": "ALM", "codeIcaoAirport": "KALM", "airportId": 239}}, {"geometry": {"type": "Point", "coordinates": [-90.04833, 38.891666]}, "type": "Feature", "properties": {"codeIataAirport": "ALN", "codeIcaoAirport": "KALN", "airportId": 240}}, {"geometry": {"type": "Point", "coordinates": [-92.39972, 42.55611]}, "type": "Feature", "properties": {"codeIataAirport": "ALO", "codeIcaoAirport": "KALO", "airportId": 241}}, {"geometry": {"type": "Point", "coordinates": [37.227074, 36.185352]}, "type": "Feature", "properties": {"codeIataAirport": "ALP", "codeIcaoAirport": "OSAP", "airportId": 242}}, {"geometry": {"type": "Point", "coordinates": [-55.763332, -29.799723]}, "type": "Feature", "properties": {"codeIataAirport": "ALQ", "codeIcaoAirport": "SSLT", "airportId": 243}}, {"geometry": {"type": "Point", "coordinates": [169.36945, -45.21389]}, "type": "Feature", "properties": {"codeIataAirport": "ALR", "codeIcaoAirport": "NZLX", "airportId": 244}}, {"geometry": {"type": "Point", "coordinates": [-105.86667, 37.43667]}, "type": "Feature", "properties": {"codeIataAirport": "ALS", "codeIcaoAirport": "KALS", "airportId": 245}}, {"geometry": {"type": "Point", "coordinates": [50.8, 11.966667]}, "type": "Feature", "properties": {"codeIataAirport": "ALU", "codeIcaoAirport": "HCMA", "airportId": 247}}, {"geometry": {"type": "Point", "coordinates": [-118.291115, 46.094723]}, "type": "Feature", "properties": {"codeIataAirport": "ALW", "codeIcaoAirport": "KALW", "airportId": 248}}, {"geometry": {"type": "Point", "coordinates": [-85.95, 32.933334]}, "type": "Feature", "properties": {"codeIataAirport": "ALX", "codeIcaoAirport": "ALX_", "airportId": 249}}, {"geometry": {"type": "Point", "coordinates": [29.953058, 31.192545]}, "type": "Feature", "properties": {"codeIataAirport": "ALY", "codeIcaoAirport": "HEAX", "airportId": 250}}, {"geometry": {"type": "Point", "coordinates": [-101.70513, 35.218273]}, "type": "Feature", "properties": {"codeIataAirport": "AMA", "codeIcaoAirport": "KAMA", "airportId": 252}}, {"geometry": {"type": "Point", "coordinates": [20.283333, 11.033333]}, "type": "Feature", "properties": {"codeIataAirport": "AMC", "codeIcaoAirport": "FTTN", "airportId": 254}}, {"geometry": {"type": "Point", "coordinates": [72.62417, 23.06639]}, "type": "Feature", "properties": {"codeIataAirport": "AMD", "codeIcaoAirport": "VAAH", "airportId": 255}}, {"geometry": {"type": "Point", "coordinates": [37.576942, 6.036111]}, "type": "Feature", "properties": {"codeIataAirport": "AMH", "codeIcaoAirport": "HAAM", "airportId": 259}}, {"geometry": {"type": "Point", "coordinates": [-40.683334, -16.183332]}, "type": "Feature", "properties": {"codeIataAirport": "AMJ", "codeIcaoAirport": "SNAR", "airportId": 260}}, {"geometry": {"type": "Point", "coordinates": [35.98932, 31.722534]}, "type": "Feature", "properties": {"codeIataAirport": "AMM", "codeIcaoAirport": "OJAI", "airportId": 262}}, {"geometry": {"type": "Point", "coordinates": [-84.65, 43.38333]}, "type": "Feature", "properties": {"codeIataAirport": "AMN", "codeIcaoAirport": "KAMN", "airportId": 263}}, {"geometry": {"type": "Point", "coordinates": [44.733334, -24.7]}, "type": "Feature", "properties": {"codeIataAirport": "AMP", "codeIcaoAirport": "FMSY", "airportId": 265}}, {"geometry": {"type": "Point", "coordinates": [128.08888, -3.704996]}, "type": "Feature", "properties": {"codeIataAirport": "AMQ", "codeIcaoAirport": "WAPP", "airportId": 266}}, {"geometry": {"type": "Point", "coordinates": [4.763385, 52.30907]}, "type": "Feature", "properties": {"codeIataAirport": "AMS", "codeIcaoAirport": "EHAM", "airportId": 268}}, {"geometry": {"type": "Point", "coordinates": [132.03334, -26.766666]}, "type": "Feature", "properties": {"codeIataAirport": "AMT", "codeIcaoAirport": "YAMT", "airportId": 269}}, {"geometry": {"type": "Point", "coordinates": [61.55, 69.76667]}, "type": "Feature", "properties": {"codeIataAirport": "AMV", "codeIcaoAirport": "ULDD", "airportId": 271}}, {"geometry": {"type": "Point", "coordinates": [-93.61833, 41.994167]}, "type": "Feature", "properties": {"codeIataAirport": "AMW", "codeIcaoAirport": "KAMW", "airportId": 272}}, {"geometry": {"type": "Point", "coordinates": [135.24, -21.74]}, "type": "Feature", "properties": {"codeIataAirport": "AMX", "codeIcaoAirport": "YAMM", "airportId": 273}}, {"geometry": {"type": "Point", "coordinates": [174.96666, -37.033333]}, "type": "Feature", "properties": {"codeIataAirport": "AMZ", "codeIcaoAirport": "NZAR", "airportId": 275}}, {"geometry": {"type": "Point", "coordinates": [-85.855835, 33.59028]}, "type": "Feature", "properties": {"codeIataAirport": "ANB", "codeIcaoAirport": "KANB", "airportId": 277}}, {"geometry": {"type": "Point", "coordinates": [-149.99638, 61.174442]}, "type": "Feature", "properties": {"codeIataAirport": "ANC", "codeIcaoAirport": "PANC", "airportId": 278}}, {"geometry": {"type": "Point", "coordinates": [-82.71, 34.49361]}, "type": "Feature", "properties": {"codeIataAirport": "AND", "codeIcaoAirport": "KAND", "airportId": 279}}, {"geometry": {"type": "Point", "coordinates": [-0.55, 47.466667]}, "type": "Feature", "properties": {"codeIataAirport": "ANE", "codeIcaoAirport": "LFJR", "airportId": 280}}, {"geometry": {"type": "Point", "coordinates": [-70.44079, -23.449]}, "type": "Feature", "properties": {"codeIataAirport": "ANF", "codeIcaoAirport": "SCFA", "airportId": 281}}, {"geometry": {"type": "Point", "coordinates": [0.216667, 45.733334]}, "type": "Feature", "properties": {"codeIataAirport": "ANG", "codeIcaoAirport": "LFBU", "airportId": 282}}, {"geometry": {"type": "Point", "coordinates": [-159.53697, 61.574398]}, "type": "Feature", "properties": {"codeIataAirport": "ANI", "codeIcaoAirport": "PANI", "airportId": 283}}, {"geometry": {"type": "Point", "coordinates": [32.833332, 39.983334]}, "type": "Feature", "properties": {"codeIataAirport": "ANK", "codeIcaoAirport": "LTAD", "airportId": 285}}, {"geometry": {"type": "Point", "coordinates": [50.316666, -15.0]}, "type": "Feature", "properties": {"codeIataAirport": "ANM", "codeIcaoAirport": "FMNH", "airportId": 287}}, {"geometry": {"type": "Point", "coordinates": [-131.57056, 55.036945]}, "type": "Feature", "properties": {"codeIataAirport": "ANN", "codeIcaoAirport": "PANT", "airportId": 288}}, {"geometry": {"type": "Point", "coordinates": [-76.5, 38.983334]}, "type": "Feature", "properties": {"codeIataAirport": "ANP", "codeIcaoAirport": "KANP", "airportId": 290}}, {"geometry": {"type": "Point", "coordinates": [-85.0, 41.63333]}, "type": "Feature", "properties": {"codeIataAirport": "ANQ", "codeIcaoAirport": "KANQ", "airportId": 291}}, {"geometry": {"type": "Point", "coordinates": [4.450672, 51.18916]}, "type": "Feature", "properties": {"codeIataAirport": "ANR", "codeIcaoAirport": "EBAW", "airportId": 292}}, {"geometry": {"type": "Point", "coordinates": [-73.355835, -13.716667]}, "type": "Feature", "properties": {"codeIataAirport": "ANS", "codeIcaoAirport": "SPHY", "airportId": 293}}, {"geometry": {"type": "Point", "coordinates": [-61.76389, 17.108334]}, "type": "Feature", "properties": {"codeIataAirport": "ANU", "codeIcaoAirport": "TAPA", "airportId": 295}}, {"geometry": {"type": "Point", "coordinates": [-160.18889, 62.647778]}, "type": "Feature", "properties": {"codeIataAirport": "ANV", "codeIcaoAirport": "PANV", "airportId": 296}}, {"geometry": {"type": "Point", "coordinates": [-99.86667, 42.55]}, "type": "Feature", "properties": {"codeIataAirport": "ANW", "codeIcaoAirport": "KANW", "airportId": 297}}, {"geometry": {"type": "Point", "coordinates": [16.133326, 69.30492]}, "type": "Feature", "properties": {"codeIataAirport": "ANX", "codeIcaoAirport": "ENAN", "airportId": 298}}, {"geometry": {"type": "Point", "coordinates": [-98.03333, 37.15]}, "type": "Feature", "properties": {"codeIataAirport": "ANY", "codeIcaoAirport": "KANY", "airportId": 299}}, {"geometry": {"type": "Point", "coordinates": [12.45, 50.983334]}, "type": "Feature", "properties": {"codeIataAirport": "AOC", "codeIcaoAirport": "EDAC", "airportId": 302}}, {"geometry": {"type": "Point", "coordinates": [30.519444, 39.81]}, "type": "Feature", "properties": {"codeIataAirport": "AOE", "codeIcaoAirport": "LTBY", "airportId": 304}}, {"geometry": {"type": "Point", "coordinates": [123.03333, 41.166668]}, "type": "Feature", "properties": {"codeIataAirport": "AOG", "codeIcaoAirport": "ZYAS", "airportId": 305}}, {"geometry": {"type": "Point", "coordinates": [-84.1, 40.766666]}, "type": "Feature", "properties": {"codeIataAirport": "AOH", "codeIcaoAirport": "KAOH", "airportId": 306}}, {"geometry": {"type": "Point", "coordinates": [13.355723, 43.60691]}, "type": "Feature", "properties": {"codeIataAirport": "AOI", "codeIcaoAirport": "LIPY", "airportId": 307}}, {"geometry": {"type": "Point", "coordinates": [140.68922, 40.738758]}, "type": "Feature", "properties": {"codeIataAirport": "AOJ", "codeIcaoAirport": "RJSA", "airportId": 308}}, {"geometry": {"type": "Point", "coordinates": [27.146729, 35.420685]}, "type": "Feature", "properties": {"codeIataAirport": "AOK", "codeIcaoAirport": "LGKP", "airportId": 309}}, {"geometry": {"type": "Point", "coordinates": [-57.15, -29.683332]}, "type": "Feature", "properties": {"codeIataAirport": "AOL", "codeIcaoAirport": "SARL", "airportId": 310}}, {"geometry": {"type": "Point", "coordinates": [-78.32, 40.297222]}, "type": "Feature", "properties": {"codeIataAirport": "AOO", "codeIcaoAirport": "KAOO", "airportId": 313}}, {"geometry": {"type": "Point", "coordinates": [100.405266, 6.201171]}, "type": "Feature", "properties": {"codeIataAirport": "AOR", "codeIcaoAirport": "WMKA", "airportId": 315}}, {"geometry": {"type": "Point", "coordinates": [7.3625, 45.73861]}, "type": "Feature", "properties": {"codeIataAirport": "AOT", "codeIcaoAirport": "LIMW", "airportId": 317}}, {"geometry": {"type": "Point", "coordinates": [106.833336, 14.8]}, "type": "Feature", "properties": {"codeIataAirport": "AOU", "codeIcaoAirport": "VLAP", "airportId": 318}}, {"geometry": {"type": "Point", "coordinates": [-104.98333, 39.733334]}, "type": "Feature", "properties": {"codeIataAirport": "APA", "codeIcaoAirport": "KAPA", "airportId": 319}}, {"geometry": {"type": "Point", "coordinates": [-68.51667, -14.716667]}, "type": "Feature", "properties": {"codeIataAirport": "APB", "codeIcaoAirport": "SLAP", "airportId": 320}}, {"geometry": {"type": "Point", "coordinates": [-122.28, 38.212223]}, "type": "Feature", "properties": {"codeIataAirport": "APC", "codeIcaoAirport": "KAPC", "airportId": 321}}, {"geometry": {"type": "Point", "coordinates": [-81.775276, 26.152779]}, "type": "Feature", "properties": {"codeIataAirport": "APF", "codeIcaoAirport": "KAPF", "airportId": 323}}, {"geometry": {"type": "Point", "coordinates": [-146.08333, -15.416667]}, "type": "Feature", "properties": {"codeIataAirport": "APK", "codeIcaoAirport": "NTGD", "airportId": 327}}, {"geometry": {"type": "Point", "coordinates": [39.287224, -15.101667]}, "type": "Feature", "properties": {"codeIataAirport": "APL", "codeIcaoAirport": "FQNP", "airportId": 328}}, {"geometry": {"type": "Point", "coordinates": [-83.55583, 45.08167]}, "type": "Feature", "properties": {"codeIataAirport": "APN", "codeIcaoAirport": "KAPN", "airportId": 329}}, {"geometry": {"type": "Point", "coordinates": [-76.71766, 7.817678]}, "type": "Feature", "properties": {"codeIataAirport": "APO", "codeIcaoAirport": "SKLC", "airportId": 330}}, {"geometry": {"type": "Point", "coordinates": [-36.65, -9.75]}, "type": "Feature", "properties": {"codeIataAirport": "APQ", "codeIcaoAirport": "SNAL", "airportId": 332}}, {"geometry": {"type": "Point", "coordinates": [-48.966667, -16.333332]}, "type": "Feature", "properties": {"codeIataAirport": "APS", "codeIcaoAirport": "SBAN", "airportId": 334}}, {"geometry": {"type": "Point", "coordinates": [-51.483334, -23.55]}, "type": "Feature", "properties": {"codeIataAirport": "APU", "codeIcaoAirport": "SSAP", "airportId": 336}}, {"geometry": {"type": "Point", "coordinates": [-117.212776, 34.52639]}, "type": "Feature", "properties": {"codeIataAirport": "APV", "codeIcaoAirport": "KAPV", "airportId": 337}}, {"geometry": {"type": "Point", "coordinates": [-171.99724, -13.832793]}, "type": "Feature", "properties": {"codeIataAirport": "APW", "codeIcaoAirport": "NSFA", "airportId": 338}}, {"geometry": {"type": "Point", "coordinates": [-51.466667, -23.483334]}, "type": "Feature", "properties": {"codeIataAirport": "APX", "codeIcaoAirport": "SSOG", "airportId": 339}}, {"geometry": {"type": "Point", "coordinates": [-70.083336, -38.916668]}, "type": "Feature", "properties": {"codeIataAirport": "APZ", "codeIcaoAirport": "SAHZ", "airportId": 341}}, {"geometry": {"type": "Point", "coordinates": [-48.13333, -21.816668]}, "type": "Feature", "properties": {"codeIataAirport": "AQA", "codeIcaoAirport": "SBAQ", "airportId": 342}}, {"geometry": {"type": "Point", "coordinates": [-91.15, 15.01]}, "type": "Feature", "properties": {"codeIataAirport": "AQB", "codeIcaoAirport": "MGQC", "airportId": 343}}, {"geometry": {"type": "Point", "coordinates": [117.0509, 30.5825]}, "type": "Feature", "properties": {"codeIataAirport": "AQG", "codeIcaoAirport": "ZSAQ", "airportId": 344}}, {"geometry": {"type": "Point", "coordinates": [46.121315, 28.334408]}, "type": "Feature", "properties": {"codeIataAirport": "AQI", "codeIcaoAirport": "OEPA", "airportId": 345}}, {"geometry": {"type": "Point", "coordinates": [35.02151, 29.610073]}, "type": "Feature", "properties": {"codeIataAirport": "AQJ", "codeIcaoAirport": "OJAQ", "airportId": 346}}, {"geometry": {"type": "Point", "coordinates": [-63.066666, -9.933333]}, "type": "Feature", "properties": {"codeIataAirport": "AQM", "codeIcaoAirport": "SWNI", "airportId": 347}}, {"geometry": {"type": "Point", "coordinates": [-71.56799, -16.344812]}, "type": "Feature", "properties": {"codeIataAirport": "AQP", "codeIcaoAirport": "SPQU", "airportId": 348}}, {"geometry": {"type": "Point", "coordinates": [-91.88389, 30.037779]}, "type": "Feature", "properties": {"codeIataAirport": "ARA", "codeIcaoAirport": "KARA", "airportId": 350}}, {"geometry": {"type": "Point", "coordinates": [-83.75, 42.3]}, "type": "Feature", "properties": {"codeIataAirport": "ARB", "codeIcaoAirport": "KARB", "airportId": 351}}, {"geometry": {"type": "Point", "coordinates": [-145.52444, 68.1375]}, "type": "Feature", "properties": {"codeIataAirport": "ARC", "codeIcaoAirport": "PARC", "airportId": 352}}, {"geometry": {"type": "Point", "coordinates": [124.53333, -8.683333]}, "type": "Feature", "properties": {"codeIataAirport": "ARD", "codeIcaoAirport": "WATM", "airportId": 353}}, {"geometry": {"type": "Point", "coordinates": [-66.675835, 18.45]}, "type": "Feature", "properties": {"codeIataAirport": "ARE", "codeIcaoAirport": "TJAB", "airportId": 354}}, {"geometry": {"type": "Point", "coordinates": [-90.95, 36.066666]}, "type": "Feature", "properties": {"codeIataAirport": "ARG", "codeIcaoAirport": "KARG", "airportId": 356}}, {"geometry": {"type": "Point", "coordinates": [40.711903, 64.594795]}, "type": "Feature", "properties": {"codeIataAirport": "ARH", "codeIcaoAirport": "ULAA", "airportId": 357}}, {"geometry": {"type": "Point", "coordinates": [-70.335556, -18.349766]}, "type": "Feature", "properties": {"codeIataAirport": "ARI", "codeIcaoAirport": "SCAR", "airportId": 358}}, {"geometry": {"type": "Point", "coordinates": [140.78334, -2.933333]}, "type": "Feature", "properties": {"codeIataAirport": "ARJ", "codeIcaoAirport": "WAJA", "airportId": 359}}, {"geometry": {"type": "Point", "coordinates": [36.683334, -3.366667]}, "type": "Feature", "properties": {"codeIataAirport": "ARK", "codeIcaoAirport": "HTAR", "airportId": 360}}, {"geometry": {"type": "Point", "coordinates": [1.483333, 11.6]}, "type": "Feature", "properties": {"codeIataAirport": "ARL", "codeIcaoAirport": "DFER", "airportId": 361}}, {"geometry": {"type": "Point", "coordinates": [151.61493, -30.532297]}, "type": "Feature", "properties": {"codeIataAirport": "ARM", "codeIcaoAirport": "YARM", "airportId": 362}}, {"geometry": {"type": "Point", "coordinates": [17.930365, 59.64982]}, "type": "Feature", "properties": {"codeIataAirport": "ARN", "codeIcaoAirport": "ESSA", "airportId": 363}}, {"geometry": {"type": "Point", "coordinates": [-70.833336, -45.033333]}, "type": "Feature", "properties": {"codeIataAirport": "ARR", "codeIcaoAirport": "SAVR", "airportId": 367}}, {"geometry": {"type": "Point", "coordinates": [-76.021385, 43.990833]}, "type": "Feature", "properties": {"codeIataAirport": "ART", "codeIcaoAirport": "KART", "airportId": 369}}, {"geometry": {"type": "Point", "coordinates": [-50.42611, -21.143612]}, "type": "Feature", "properties": {"codeIataAirport": "ARU", "codeIcaoAirport": "SBAU", "airportId": 370}}, {"geometry": {"type": "Point", "coordinates": [-89.73222, 45.924168]}, "type": "Feature", "properties": {"codeIataAirport": "ARV", "codeIcaoAirport": "KARV", "airportId": 371}}, {"geometry": {"type": "Point", "coordinates": [21.266666, 46.183334]}, "type": "Feature", "properties": {"codeIataAirport": "ARW", "codeIcaoAirport": "LRAR", "airportId": 372}}, {"geometry": {"type": "Point", "coordinates": [143.0, -37.316666]}, "type": "Feature", "properties": {"codeIataAirport": "ARY", "codeIcaoAirport": "YARA", "airportId": 373}}, {"geometry": {"type": "Point", "coordinates": [13.5, -7.5]}, "type": "Feature", "properties": {"codeIataAirport": "ARZ", "codeIcaoAirport": "FNZE", "airportId": 374}}, {"geometry": {"type": "Point", "coordinates": [42.638332, 13.07]}, "type": "Feature", "properties": {"codeIataAirport": "ASA", "codeIcaoAirport": "HHSB", "airportId": 375}}, {"geometry": {"type": "Point", "coordinates": [58.366978, 37.984184]}, "type": "Feature", "properties": {"codeIataAirport": "ASB", "codeIcaoAirport": "UTAA", "airportId": 376}}, {"geometry": {"type": "Point", "coordinates": [-63.15, -15.916667]}, "type": "Feature", "properties": {"codeIataAirport": "ASC", "codeIcaoAirport": "SLAS", "airportId": 377}}, {"geometry": {"type": "Point", "coordinates": [-77.79611, 24.697779]}, "type": "Feature", "properties": {"codeIataAirport": "ASD", "codeIcaoAirport": "MYAF", "airportId": 378}}, {"geometry": {"type": "Point", "coordinates": [-106.864685, 39.219685]}, "type": "Feature", "properties": {"codeIataAirport": "ASE", "codeIcaoAirport": "KASE", "airportId": 379}}, {"geometry": {"type": "Point", "coordinates": [47.999977, 46.2877]}, "type": "Feature", "properties": {"codeIataAirport": "ASF", "codeIcaoAirport": "URWA", "airportId": 380}}, {"geometry": {"type": "Point", "coordinates": [171.78334, -43.9]}, "type": "Feature", "properties": {"codeIataAirport": "ASG", "codeIcaoAirport": "NZAS", "airportId": 381}}, {"geometry": {"type": "Point", "coordinates": [-71.509445, 42.77889]}, "type": "Feature", "properties": {"codeIataAirport": "ASH", "codeIcaoAirport": "KASH", "airportId": 382}}, {"geometry": {"type": "Point", "coordinates": [129.70793, 28.431522]}, "type": "Feature", "properties": {"codeIataAirport": "ASJ", "codeIcaoAirport": "RJKA", "airportId": 384}}, {"geometry": {"type": "Point", "coordinates": [-5.283333, 6.816667]}, "type": "Feature", "properties": {"codeIataAirport": "ASK", "codeIcaoAirport": "DIYO", "airportId": 385}}, {"geometry": {"type": "Point", "coordinates": [-94.38333, 32.55]}, "type": "Feature", "properties": {"codeIataAirport": "ASL", "codeIcaoAirport": "KASL", "airportId": 386}}, {"geometry": {"type": "Point", "coordinates": [38.91028, 15.291111]}, "type": "Feature", "properties": {"codeIataAirport": "ASM", "codeIcaoAirport": "HHAS", "airportId": 387}}, {"geometry": {"type": "Point", "coordinates": [-86.1, 33.433334]}, "type": "Feature", "properties": {"codeIataAirport": "ASN", "codeIcaoAirport": "KASN", "airportId": 388}}, {"geometry": {"type": "Point", "coordinates": [34.536667, 10.047222]}, "type": "Feature", "properties": {"codeIataAirport": "ASO", "codeIcaoAirport": "HASO", "airportId": 389}}, {"geometry": {"type": "Point", "coordinates": [133.90338, -23.80139]}, "type": "Feature", "properties": {"codeIataAirport": "ASP", "codeIcaoAirport": "YBAS", "airportId": 390}}, {"geometry": {"type": "Point", "coordinates": [-117.166664, 39.466667]}, "type": "Feature", "properties": {"codeIataAirport": "ASQ", "codeIcaoAirport": "KTMT", "airportId": 391}}, {"geometry": {"type": "Point", "coordinates": [35.490707, 38.7742]}, "type": "Feature", "properties": {"codeIataAirport": "ASR", "codeIcaoAirport": "LTAU", "airportId": 392}}, {"geometry": {"type": "Point", "coordinates": [-123.88, 46.15972]}, "type": "Feature", "properties": {"codeIataAirport": "AST", "codeIcaoAirport": "KAST", "airportId": 393}}, {"geometry": {"type": "Point", "coordinates": [-57.513794, -25.241795]}, "type": "Feature", "properties": {"codeIataAirport": "ASU", "codeIcaoAirport": "SGAS", "airportId": 394}}, {"geometry": {"type": "Point", "coordinates": [37.25, -2.633333]}, "type": "Feature", "properties": {"codeIataAirport": "ASV", "codeIcaoAirport": "HKAM", "airportId": 395}}, {"geometry": {"type": "Point", "coordinates": [32.824818, 23.968021]}, "type": "Feature", "properties": {"codeIataAirport": "ASW", "codeIcaoAirport": "HESN", "airportId": 396}}, {"geometry": {"type": "Point", "coordinates": [-90.916664, 46.55]}, "type": "Feature", "properties": {"codeIataAirport": "ASX", "codeIcaoAirport": "KASX", "airportId": 397}}, {"geometry": {"type": "Point", "coordinates": [-77.6, -9.347222]}, "type": "Feature", "properties": {"codeIataAirport": "ATA", "codeIcaoAirport": "SPHZ", "airportId": 400}}, {"geometry": {"type": "Point", "coordinates": [34.016666, 17.716667]}, "type": "Feature", "properties": {"codeIataAirport": "ATB", "codeIcaoAirport": "HSAT", "airportId": 401}}, {"geometry": {"type": "Point", "coordinates": [-75.67139, 24.62861]}, "type": "Feature", "properties": {"codeIataAirport": "ATC", "codeIcaoAirport": "MYCA", "airportId": 402}}, {"geometry": {"type": "Point", "coordinates": [161.03334, -8.866667]}, "type": "Feature", "properties": {"codeIataAirport": "ATD", "codeIcaoAirport": "AGAT", "airportId": 403}}, {"geometry": {"type": "Point", "coordinates": [-78.7, -1.083333]}, "type": "Feature", "properties": {"codeIataAirport": "ATF", "codeIcaoAirport": "SEAM", "airportId": 405}}, {"geometry": {"type": "Point", "coordinates": [23.946486, 37.93635]}, "type": "Feature", "properties": {"codeIataAirport": "ATH", "codeIcaoAirport": "LGAV", "airportId": 407}}, {"geometry": {"type": "Point", "coordinates": [-56.50833, -30.4]}, "type": "Feature", "properties": {"codeIataAirport": "ATI", "codeIcaoAirport": "SUAG", "airportId": 408}}, {"geometry": {"type": "Point", "coordinates": [47.016666, -19.85]}, "type": "Feature", "properties": {"codeIataAirport": "ATJ", "codeIcaoAirport": "FMME", "airportId": 409}}, {"geometry": {"type": "Point", "coordinates": [-157.33333, 70.5]}, "type": "Feature", "properties": {"codeIataAirport": "ATK", "codeIcaoAirport": "PATQ", "airportId": 410}}, {"geometry": {"type": "Point", "coordinates": [-84.44403, 33.640068]}, "type": "Feature", "properties": {"codeIataAirport": "ATL", "codeIcaoAirport": "KATL", "airportId": 411}}, {"geometry": {"type": "Point", "coordinates": [-52.216667, -3.2]}, "type": "Feature", "properties": {"codeIataAirport": "ATM", "codeIcaoAirport": "SBHT", "airportId": 412}}, {"geometry": {"type": "Point", "coordinates": [142.28334, -3.166667]}, "type": "Feature", "properties": {"codeIataAirport": "ATP", "codeIcaoAirport": "AYAI", "airportId": 415}}, {"geometry": {"type": "Point", "coordinates": [74.8073, 31.706741]}, "type": "Feature", "properties": {"codeIataAirport": "ATQ", "codeIcaoAirport": "VIAR", "airportId": 416}}, {"geometry": {"type": "Point", "coordinates": [-13.046389, 20.499443]}, "type": "Feature", "properties": {"codeIataAirport": "ATR", "codeIcaoAirport": "GQPA", "airportId": 417}}, {"geometry": {"type": "Point", "coordinates": [-104.46694, 32.84833]}, "type": "Feature", "properties": {"codeIataAirport": "ATS", "codeIcaoAirport": "KATS", "airportId": 418}}, {"geometry": {"type": "Point", "coordinates": [-162.2675, 60.866943]}, "type": "Feature", "properties": {"codeIataAirport": "ATT", "codeIcaoAirport": "KATT", "airportId": 419}}, {"geometry": {"type": "Point", "coordinates": [-88.50994, 44.26011]}, "type": "Feature", "properties": {"codeIataAirport": "ATW", "codeIcaoAirport": "KATW", "airportId": 421}}, {"geometry": {"type": "Point", "coordinates": [-97.15417, 44.90889]}, "type": "Feature", "properties": {"codeIataAirport": "ATY", "codeIcaoAirport": "KATY", "airportId": 423}}, {"geometry": {"type": "Point", "coordinates": [31.0, 27.033333]}, "type": "Feature", "properties": {"codeIataAirport": "ATZ", "codeIcaoAirport": "HEAT", "airportId": 424}}, {"geometry": {"type": "Point", "coordinates": [-70.013885, 12.502222]}, "type": "Feature", "properties": {"codeIataAirport": "AUA", "codeIcaoAirport": "TNCA", "airportId": 425}}, {"geometry": {"type": "Point", "coordinates": [-70.7425, 7.071667]}, "type": "Feature", "properties": {"codeIataAirport": "AUC", "codeIcaoAirport": "SKUC", "airportId": 427}}, {"geometry": {"type": "Point", "coordinates": [139.88167, -18.506945]}, "type": "Feature", "properties": {"codeIataAirport": "AUD", "codeIcaoAirport": "YAGD", "airportId": 428}}, {"geometry": {"type": "Point", "coordinates": [3.5, 47.85]}, "type": "Feature", "properties": {"codeIataAirport": "AUF", "codeIcaoAirport": "LFLA", "airportId": 430}}, {"geometry": {"type": "Point", "coordinates": [-69.79667, 44.318054]}, "type": "Feature", "properties": {"codeIataAirport": "AUG", "codeIcaoAirport": "KAUG", "airportId": 431}}, {"geometry": {"type": "Point", "coordinates": [54.645973, 24.426912]}, "type": "Feature", "properties": {"codeIataAirport": "AUH", "codeIcaoAirport": "OMAA", "airportId": 432}}, {"geometry": {"type": "Point", "coordinates": [-164.61084, 62.689167]}, "type": "Feature", "properties": {"codeIataAirport": "AUK", "codeIcaoAirport": "PAUK", "airportId": 435}}, {"geometry": {"type": "Point", "coordinates": [-92.98333, 43.666668]}, "type": "Feature", "properties": {"codeIataAirport": "AUM", "codeIcaoAirport": "KAUM", "airportId": 437}}, {"geometry": {"type": "Point", "coordinates": [-121.066666, 38.9]}, "type": "Feature", "properties": {"codeIataAirport": "AUN", "codeIcaoAirport": "KAUN", "airportId": 438}}, {"geometry": {"type": "Point", "coordinates": [-85.5, 32.63333]}, "type": "Feature", "properties": {"codeIataAirport": "AUO", "codeIcaoAirport": "KAUO", "airportId": 439}}, {"geometry": {"type": "Point", "coordinates": [-139.00978, -9.769324]}, "type": "Feature", "properties": {"codeIataAirport": "AUQ", "codeIcaoAirport": "NTMN", "airportId": 441}}, {"geometry": {"type": "Point", "coordinates": [2.418056, 44.8975]}, "type": "Feature", "properties": {"codeIataAirport": "AUR", "codeIcaoAirport": "LFLW", "airportId": 442}}, {"geometry": {"type": "Point", "coordinates": [-97.66706, 30.202545]}, "type": "Feature", "properties": {"codeIataAirport": "AUS", "codeIcaoAirport": "KAUS", "airportId": 443}}, {"geometry": {"type": "Point", "coordinates": [125.583336, -8.216667]}, "type": "Feature", "properties": {"codeIataAirport": "AUT", "codeIcaoAirport": "WPAT", "airportId": 444}}, {"geometry": {"type": "Point", "coordinates": [142.25, -13.166667]}, "type": "Feature", "properties": {"codeIataAirport": "AUU", "codeIcaoAirport": "YAUR", "airportId": 445}}, {"geometry": {"type": "Point", "coordinates": [-48.2, -7.2]}, "type": "Feature", "properties": {"codeIataAirport": "AUX", "codeIcaoAirport": "SWGN", "airportId": 448}}, {"geometry": {"type": "Point", "coordinates": [169.66667, -20.333332]}, "type": "Feature", "properties": {"codeIataAirport": "AUY", "codeIcaoAirport": "NVVA", "airportId": 449}}, {"geometry": {"type": "Point", "coordinates": [-88.316666, 41.75]}, "type": "Feature", "properties": {"codeIataAirport": "AUZ", "codeIcaoAirport": "KARR", "airportId": 450}}, {"geometry": {"type": "Point", "coordinates": [105.87278, 26.257221]}, "type": "Feature", "properties": {"codeIataAirport": "AVA", "codeIcaoAirport": "ZUAS", "airportId": 451}}, {"geometry": {"type": "Point", "coordinates": [12.6, 46.033333]}, "type": "Feature", "properties": {"codeIataAirport": "AVB", "codeIcaoAirport": "LIPA", "airportId": 452}}, {"geometry": {"type": "Point", "coordinates": [130.01666, -15.65]}, "type": "Feature", "properties": {"codeIataAirport": "AVG", "codeIcaoAirport": "YAUV", "airportId": 453}}, {"geometry": {"type": "Point", "coordinates": [-78.79139, 22.025]}, "type": "Feature", "properties": {"codeIataAirport": "AVI", "codeIcaoAirport": "MUCA", "airportId": 454}}, {"geometry": {"type": "Point", "coordinates": [102.78333, 46.266666]}, "type": "Feature", "properties": {"codeIataAirport": "AVK", "codeIcaoAirport": "ZMAH", "airportId": 455}}, {"geometry": {"type": "Point", "coordinates": [-82.537315, 35.43508]}, "type": "Feature", "properties": {"codeIataAirport": "AVL", "codeIcaoAirport": "KAVL", "airportId": 456}}, {"geometry": {"type": "Point", "coordinates": [4.9, 43.9]}, "type": "Feature", "properties": {"codeIataAirport": "AVN", "codeIcaoAirport": "LFMV", "airportId": 457}}, {"geometry": {"type": "Point", "coordinates": [-81.51667, 27.6]}, "type": "Feature", "properties": {"codeIataAirport": "AVO", "codeIcaoAirport": "KAVO", "airportId": 458}}, {"geometry": {"type": "Point", "coordinates": [-75.730644, 41.336697]}, "type": "Feature", "properties": {"codeIataAirport": "AVP", "codeIcaoAirport": "KAVP", "airportId": 459}}, {"geometry": {"type": "Point", "coordinates": [144.47308, -38.02637]}, "type": "Feature", "properties": {"codeIataAirport": "AVV", "codeIcaoAirport": "YMAV", "airportId": 461}}, {"geometry": {"type": "Point", "coordinates": [-111.21667, 32.416668]}, "type": "Feature", "properties": {"codeIataAirport": "AVW", "codeIcaoAirport": "KAVQ", "airportId": 462}}, {"geometry": {"type": "Point", "coordinates": [-118.31528, 33.341667]}, "type": "Feature", "properties": {"codeIataAirport": "AVX", "codeIcaoAirport": "KAVX", "airportId": 463}}, {"geometry": {"type": "Point", "coordinates": [38.4875, 7.061111]}, "type": "Feature", "properties": {"codeIataAirport": "AWA", "codeIcaoAirport": "HALA", "airportId": 464}}, {"geometry": {"type": "Point", "coordinates": [169.5, -19.25]}, "type": "Feature", "properties": {"codeIataAirport": "AWD", "codeIcaoAirport": "NVVB", "airportId": 466}}, {"geometry": {"type": "Point", "coordinates": [166.63333, 19.283333]}, "type": "Feature", "properties": {"codeIataAirport": "AWK", "codeIcaoAirport": "PWAK", "airportId": 468}}, {"geometry": {"type": "Point", "coordinates": [-90.183334, 35.13333]}, "type": "Feature", "properties": {"codeIataAirport": "AWM", "codeIcaoAirport": "KAWM", "airportId": 469}}, {"geometry": {"type": "Point", "coordinates": [137.75, -20.5]}, "type": "Feature", "properties": {"codeIataAirport": "AWP", "codeIcaoAirport": "YAUS", "airportId": 471}}, {"geometry": {"type": "Point", "coordinates": [48.74668, 31.34292]}, "type": "Feature", "properties": {"codeIataAirport": "AWZ", "codeIcaoAirport": "OIAW", "airportId": 472}}, {"geometry": {"type": "Point", "coordinates": [-63.066666, 18.216667]}, "type": "Feature", "properties": {"codeIataAirport": "AXA", "codeIcaoAirport": "TQPF", "airportId": 473}}, {"geometry": {"type": "Point", "coordinates": [145.2425, -22.958055]}, "type": "Feature", "properties": {"codeIataAirport": "AXC", "codeIcaoAirport": "YAMC", "airportId": 475}}, {"geometry": {"type": "Point", "coordinates": [25.944893, 40.856785]}, "type": "Feature", "properties": {"codeIataAirport": "AXD", "codeIcaoAirport": "LGAL", "airportId": 476}}, {"geometry": {"type": "Point", "coordinates": [-94.23333, 43.066666]}, "type": "Feature", "properties": {"codeIataAirport": "AXG", "codeIcaoAirport": "KAXA", "airportId": 478}}, {"geometry": {"type": "Point", "coordinates": [46.3, 13.866667]}, "type": "Feature", "properties": {"codeIataAirport": "AXK", "codeIcaoAirport": "ODAT", "airportId": 479}}, {"geometry": {"type": "Point", "coordinates": [136.66667, -19.083332]}, "type": "Feature", "properties": {"codeIataAirport": "AXL", "codeIcaoAirport": "YALX", "airportId": 480}}, {"geometry": {"type": "Point", "coordinates": [-75.76804, 4.452869]}, "type": "Feature", "properties": {"codeIataAirport": "AXM", "codeIcaoAirport": "SKAR", "airportId": 481}}, {"geometry": {"type": "Point", "coordinates": [-95.394165, 45.86722]}, "type": "Feature", "properties": {"codeIataAirport": "AXN", "codeIcaoAirport": "KAXN", "airportId": 482}}, {"geometry": {"type": "Point", "coordinates": [-73.96667, 22.45]}, "type": "Feature", "properties": {"codeIataAirport": "AXP", "codeIcaoAirport": "MYAP", "airportId": 483}}, {"geometry": {"type": "Point", "coordinates": [-146.75, -15.25]}, "type": "Feature", "properties": {"codeIataAirport": "AXR", "codeIcaoAirport": "NTGU", "airportId": 484}}, {"geometry": {"type": "Point", "coordinates": [-99.33806, 34.696667]}, "type": "Feature", "properties": {"codeIataAirport": "AXS", "codeIcaoAirport": "KAXS", "airportId": 485}}, {"geometry": {"type": "Point", "coordinates": [140.22015, 39.61177]}, "type": "Feature", "properties": {"codeIataAirport": "AXT", "codeIcaoAirport": "RJSK", "airportId": 486}}, {"geometry": {"type": "Point", "coordinates": [38.716667, 14.120833]}, "type": "Feature", "properties": {"codeIataAirport": "AXU", "codeIcaoAirport": "HAAX", "airportId": 487}}, {"geometry": {"type": "Point", "coordinates": [-84.2, 40.566666]}, "type": "Feature", "properties": {"codeIataAirport": "AXV", "codeIcaoAirport": "KAXV", "airportId": 488}}, {"geometry": {"type": "Point", "coordinates": [-73.933334, 1.533333]}, "type": "Feature", "properties": {"codeIataAirport": "AYG", "codeIcaoAirport": "SKYA", "airportId": 493}}, {"geometry": {"type": "Point", "coordinates": [66.96667, 50.316666]}, "type": "Feature", "properties": {"codeIataAirport": "AYK", "codeIcaoAirport": "UAUR", "airportId": 495}}, {"geometry": {"type": "Point", "coordinates": [114.35, 36.1]}, "type": "Feature", "properties": {"codeIataAirport": "AYN", "codeIcaoAirport": "ZHAY", "airportId": 497}}, {"geometry": {"type": "Point", "coordinates": [-74.24722, -13.197222]}, "type": "Feature", "properties": {"codeIataAirport": "AYP", "codeIcaoAirport": "SPHO", "airportId": 499}}, {"geometry": {"type": "Point", "coordinates": [130.97658, -25.190878]}, "type": "Feature", "properties": {"codeIataAirport": "AYQ", "codeIcaoAirport": "YAYE", "airportId": 500}}, {"geometry": {"type": "Point", "coordinates": [147.32445, -19.596666]}, "type": "Feature", "properties": {"codeIataAirport": "AYR", "codeIcaoAirport": "YAYR", "airportId": 501}}, {"geometry": {"type": "Point", "coordinates": [-82.39667, 31.248611]}, "type": "Feature", "properties": {"codeIataAirport": "AYS", "codeIcaoAirport": "KAYS", "airportId": 502}}, {"geometry": {"type": "Point", "coordinates": [30.80135, 36.89928]}, "type": "Feature", "properties": {"codeIataAirport": "AYT", "codeIcaoAirport": "LTAI", "airportId": 503}}, {"geometry": {"type": "Point", "coordinates": [145.9, -6.333333]}, "type": "Feature", "properties": {"codeIataAirport": "AYU", "codeIcaoAirport": "AYAY", "airportId": 504}}, {"geometry": {"type": "Point", "coordinates": [-111.655556, 33.307777]}, "type": "Feature", "properties": {"codeIataAirport": "AZA", "codeIcaoAirport": "KIWA", "airportId": 507}}, {"geometry": {"type": "Point", "coordinates": [54.283264, 31.903603]}, "type": "Feature", "properties": {"codeIataAirport": "AZD", "codeIcaoAirport": "OIYY", "airportId": 509}}, {"geometry": {"type": "Point", "coordinates": [54.451668, 24.419167]}, "type": "Feature", "properties": {"codeIataAirport": "AZI", "codeIcaoAirport": "OMAD", "airportId": 511}}, {"geometry": {"type": "Point", "coordinates": [72.3, 40.733334]}, "type": "Feature", "properties": {"codeIataAirport": "AZN", "codeIcaoAirport": "UTKA", "airportId": 513}}, {"geometry": {"type": "Point", "coordinates": [-85.55656, 42.239964]}, "type": "Feature", "properties": {"codeIataAirport": "AZO", "codeIcaoAirport": "KAZO", "airportId": 514}}, {"geometry": {"type": "Point", "coordinates": [-0.283333, 27.883333]}, "type": "Feature", "properties": {"codeIataAirport": "AZR", "codeIcaoAirport": "DAUA", "airportId": 516}}, {"geometry": {"type": "Point", "coordinates": [-69.736946, 19.270555]}, "type": "Feature", "properties": {"codeIataAirport": "AZS", "codeIcaoAirport": "MDZY", "airportId": 517}}, {"geometry": {"type": "Point", "coordinates": [13.15, -7.883333]}, "type": "Feature", "properties": {"codeIataAirport": "AZZ", "codeIcaoAirport": "FNAM", "airportId": 519}}, {"geometry": {"type": "Point", "coordinates": [-121.583336, 39.15]}, "type": "Feature", "properties": {"codeIataAirport": "BAB", "codeIcaoAirport": "KBAB", "airportId": 521}}, {"geometry": {"type": "Point", "coordinates": [6.666667, 44.38333]}, "type": "Feature", "properties": {"codeIataAirport": "BAE", "codeIcaoAirport": "LFMR", "airportId": 524}}, {"geometry": {"type": "Point", "coordinates": [-72.75, 42.13333]}, "type": "Feature", "properties": {"codeIataAirport": "BAF", "codeIcaoAirport": "KBAF", "airportId": 525}}, {"geometry": {"type": "Point", "coordinates": [120.617775, 16.376667]}, "type": "Feature", "properties": {"codeIataAirport": "BAG", "codeIcaoAirport": "RPUB", "airportId": 526}}, {"geometry": {"type": "Point", "coordinates": [50.62605, 26.26918]}, "type": "Feature", "properties": {"codeIataAirport": "BAH", "codeIcaoAirport": "OBBI", "airportId": 527}}, {"geometry": {"type": "Point", "coordinates": [-83.333336, 9.166667]}, "type": "Feature", "properties": {"codeIataAirport": "BAI", "codeIcaoAirport": "MRBA", "airportId": 528}}, {"geometry": {"type": "Point", "coordinates": [41.083332, 37.916668]}, "type": "Feature", "properties": {"codeIataAirport": "BAL", "codeIcaoAirport": "LTCJ", "airportId": 530}}, {"geometry": {"type": "Point", "coordinates": [-116.933334, 40.63333]}, "type": "Feature", "properties": {"codeIataAirport": "BAM", "codeIcaoAirport": "BAMB", "airportId": 531}}, {"geometry": {"type": "Point", "coordinates": [20.428057, -4.313333]}, "type": "Feature", "properties": {"codeIataAirport": "BAN", "codeIcaoAirport": "FZVR", "airportId": 532}}, {"geometry": {"type": "Point", "coordinates": [-74.77618, 10.886398]}, "type": "Feature", "properties": {"codeIataAirport": "BAQ", "codeIcaoAirport": "SKBQ", "airportId": 534}}, {"geometry": {"type": "Point", "coordinates": [155.88333, -6.983333]}, "type": "Feature", "properties": {"codeIataAirport": "BAS", "codeIcaoAirport": "AGGE", "airportId": 536}}, {"geometry": {"type": "Point", "coordinates": [-48.55, -20.55]}, "type": "Feature", "properties": {"codeIataAirport": "BAT", "codeIcaoAirport": "SNBA", "airportId": 537}}, {"geometry": {"type": "Point", "coordinates": [-49.0525, -22.343056]}, "type": "Feature", "properties": {"codeIataAirport": "BAU", "codeIcaoAirport": "SBBU", "airportId": 538}}, {"geometry": {"type": "Point", "coordinates": [110.0009, 40.563328]}, "type": "Feature", "properties": {"codeIataAirport": "BAV", "codeIcaoAirport": "ZBOW", "airportId": 539}}, {"geometry": {"type": "Point", "coordinates": [83.547646, 53.361088]}, "type": "Feature", "properties": {"codeIataAirport": "BAX", "codeIcaoAirport": "UNBB", "airportId": 541}}, {"geometry": {"type": "Point", "coordinates": [23.466667, 47.65]}, "type": "Feature", "properties": {"codeIataAirport": "BAY", "codeIcaoAirport": "LRBM", "airportId": 542}}, {"geometry": {"type": "Point", "coordinates": [-62.933613, -0.966944]}, "type": "Feature", "properties": {"codeIataAirport": "BAZ", "codeIcaoAirport": "SWBC", "airportId": 543}}, {"geometry": {"type": "Point", "coordinates": [-71.695, -45.916668]}, "type": "Feature", "properties": {"codeIataAirport": "BBA", "codeIcaoAirport": "SCBA", "airportId": 544}}, {"geometry": {"type": "Point", "coordinates": [-95.6, 45.316666]}, "type": "Feature", "properties": {"codeIataAirport": "BBB", "codeIcaoAirport": "KBBB", "airportId": 545}}, {"geometry": {"type": "Point", "coordinates": [-95.96667, 28.983334]}, "type": "Feature", "properties": {"codeIataAirport": "BBC", "codeIcaoAirport": "KBYY", "airportId": 546}}, {"geometry": {"type": "Point", "coordinates": [-99.333336, 31.133333]}, "type": "Feature", "properties": {"codeIataAirport": "BBD", "codeIcaoAirport": "KBBD", "airportId": 547}}, {"geometry": {"type": "Point", "coordinates": [172.75, 3.166667]}, "type": "Feature", "properties": {"codeIataAirport": "BBG", "codeIcaoAirport": "NGTU", "airportId": 549}}, {"geometry": {"type": "Point", "coordinates": [12.711667, 54.33972]}, "type": "Feature", "properties": {"codeIataAirport": "BBH", "codeIcaoAirport": "EDBH", "airportId": 550}}, {"geometry": {"type": "Point", "coordinates": [85.81738, 20.252853]}, "type": "Feature", "properties": {"codeIataAirport": "BBI", "codeIcaoAirport": "VEBS", "airportId": 551}}, {"geometry": {"type": "Point", "coordinates": [6.516667, 49.966667]}, "type": "Feature", "properties": {"codeIataAirport": "BBJ", "codeIcaoAirport": "EDAB", "airportId": 552}}, {"geometry": {"type": "Point", "coordinates": [25.15, -17.816668]}, "type": "Feature", "properties": {"codeIataAirport": "BBK", "codeIcaoAirport": "FBKE", "airportId": 553}}, {"geometry": {"type": "Point", "coordinates": [103.2, 13.116667]}, "type": "Feature", "properties": {"codeIataAirport": "BBM", "codeIcaoAirport": "VDBG", "airportId": 554}}, {"geometry": {"type": "Point", "coordinates": [115.46667, 3.683333]}, "type": "Feature", "properties": {"codeIataAirport": "BBN", "codeIcaoAirport": "WBGZ", "airportId": 555}}, {"geometry": {"type": "Point", "coordinates": [45.00639, 10.419444]}, "type": "Feature", "properties": {"codeIataAirport": "BBO", "codeIcaoAirport": "HCMI", "airportId": 556}}, {"geometry": {"type": "Point", "coordinates": [-1.083333, 50.683334]}, "type": "Feature", "properties": {"codeIataAirport": "BBP", "codeIcaoAirport": "EGHJ", "airportId": 557}}, {"geometry": {"type": "Point", "coordinates": [-0.85, 51.333332]}, "type": "Feature", "properties": {"codeIataAirport": "BBS", "codeIcaoAirport": "EGLK", "airportId": 560}}, {"geometry": {"type": "Point", "coordinates": [15.788056, 4.219167]}, "type": "Feature", "properties": {"codeIataAirport": "BBT", "codeIcaoAirport": "FEFT", "airportId": 561}}, {"geometry": {"type": "Point", "coordinates": [26.080996, 44.495934]}, "type": "Feature", "properties": {"codeIataAirport": "BBU", "codeIcaoAirport": "LRBS", "airportId": 562}}, {"geometry": {"type": "Point", "coordinates": [-6.95, 4.666667]}, "type": "Feature", "properties": {"codeIataAirport": "BBV", "codeIcaoAirport": "DIGN", "airportId": 563}}, {"geometry": {"type": "Point", "coordinates": [-99.63333, 41.4]}, "type": "Feature", "properties": {"codeIataAirport": "BBW", "codeIcaoAirport": "KBBW", "airportId": 564}}, {"geometry": {"type": "Point", "coordinates": [-75.2675, 40.136665]}, "type": "Feature", "properties": {"codeIataAirport": "BBX", "codeIcaoAirport": "KLOM", "airportId": 565}}, {"geometry": {"type": "Point", "coordinates": [20.649721, 5.845833]}, "type": "Feature", "properties": {"codeIataAirport": "BBY", "codeIcaoAirport": "FEFM", "airportId": 566}}, {"geometry": {"type": "Point", "coordinates": [23.11, -13.537222]}, "type": "Feature", "properties": {"codeIataAirport": "BBZ", "codeIcaoAirport": "FLZB", "airportId": 567}}, {"geometry": {"type": "Point", "coordinates": [-74.5, 20.35]}, "type": "Feature", "properties": {"codeIataAirport": "BCA", "codeIcaoAirport": "MUBA", "airportId": 568}}, {"geometry": {"type": "Point", "coordinates": [-80.416664, 37.233334]}, "type": "Feature", "properties": {"codeIataAirport": "BCB", "codeIcaoAirport": "KBCB", "airportId": 569}}, {"geometry": {"type": "Point", "coordinates": [122.93359, 10.644815]}, "type": "Feature", "properties": {"codeIataAirport": "BCD", "codeIcaoAirport": "RPVB", "airportId": 571}}, {"geometry": {"type": "Point", "coordinates": [-112.13528, 37.70111]}, "type": "Feature", "properties": {"codeIataAirport": "BCE", "codeIcaoAirport": "KBCE", "airportId": 572}}, {"geometry": {"type": "Point", "coordinates": [18.416668, 6.75]}, "type": "Feature", "properties": {"codeIataAirport": "BCF", "codeIcaoAirport": "FEGU", "airportId": 573}}, {"geometry": {"type": "Point", "coordinates": [126.39972, -8.491667]}, "type": "Feature", "properties": {"codeIataAirport": "BCH", "codeIcaoAirport": "WPEC", "airportId": 575}}, {"geometry": {"type": "Point", "coordinates": [145.30194, -23.559168]}, "type": "Feature", "properties": {"codeIataAirport": "BCI", "codeIcaoAirport": "YBAR", "airportId": 576}}, {"geometry": {"type": "Point", "coordinates": [-82.96667, 10.833333]}, "type": "Feature", "properties": {"codeIataAirport": "BCL", "codeIcaoAirport": "MRBC", "airportId": 578}}, {"geometry": {"type": "Point", "coordinates": [26.881945, 46.59861]}, "type": "Feature", "properties": {"codeIataAirport": "BCM", "codeIcaoAirport": "LRBC", "airportId": 579}}, {"geometry": {"type": "Point", "coordinates": [2.07593, 41.30303]}, "type": "Feature", "properties": {"codeIataAirport": "BCN", "codeIcaoAirport": "LEBL", "airportId": 580}}, {"geometry": {"type": "Point", "coordinates": [36.55, 5.783333]}, "type": "Feature", "properties": {"codeIataAirport": "BCO", "codeIcaoAirport": "HABC", "airportId": 581}}, {"geometry": {"type": "Point", "coordinates": [-67.38333, -8.75]}, "type": "Feature", "properties": {"codeIataAirport": "BCR", "codeIcaoAirport": "SWNK", "airportId": 584}}, {"geometry": {"type": "Point", "coordinates": [-80.083336, 26.35]}, "type": "Feature", "properties": {"codeIataAirport": "BCT", "codeIcaoAirport": "KBCT", "airportId": 586}}, {"geometry": {"type": "Point", "coordinates": [58.333332, 53.933334]}, "type": "Feature", "properties": {"codeIataAirport": "BCX", "codeIcaoAirport": "UWUB", "airportId": 590}}, {"geometry": {"type": "Point", "coordinates": [-64.70115, 32.35994]}, "type": "Feature", "properties": {"codeIataAirport": "BDA", "codeIcaoAirport": "TXKF", "airportId": 593}}, {"geometry": {"type": "Point", "coordinates": [152.32187, -24.898708]}, "type": "Feature", "properties": {"codeIataAirport": "BDB", "codeIcaoAirport": "YBUD", "airportId": 594}}, {"geometry": {"type": "Point", "coordinates": [-45.266666, -5.466667]}, "type": "Feature", "properties": {"codeIataAirport": "BDC", "codeIcaoAirport": "SNBC", "airportId": 595}}, {"geometry": {"type": "Point", "coordinates": [142.17166, -10.148655]}, "type": "Feature", "properties": {"codeIataAirport": "BDD", "codeIcaoAirport": "YBAU", "airportId": 596}}, {"geometry": {"type": "Point", "coordinates": [-94.60694, 48.72278]}, "type": "Feature", "properties": {"codeIataAirport": "BDE", "codeIcaoAirport": "KBDE", "airportId": 597}}, {"geometry": {"type": "Point", "coordinates": [-109.48333, 37.61667]}, "type": "Feature", "properties": {"codeIataAirport": "BDG", "codeIcaoAirport": "KBDG", "airportId": 599}}, {"geometry": {"type": "Point", "coordinates": [54.829147, 26.529486]}, "type": "Feature", "properties": {"codeIataAirport": "BDH", "codeIcaoAirport": "OIBL", "airportId": 600}}, {"geometry": {"type": "Point", "coordinates": [55.216667, -3.716667]}, "type": "Feature", "properties": {"codeIataAirport": "BDI", "codeIcaoAirport": "FSSB", "airportId": 601}}, {"geometry": {"type": "Point", "coordinates": [114.75425, -3.43804]}, "type": "Feature", "properties": {"codeIataAirport": "BDJ", "codeIcaoAirport": "WRBB", "airportId": 602}}, {"geometry": {"type": "Point", "coordinates": [-2.8, 8.033333]}, "type": "Feature", "properties": {"codeIataAirport": "BDK", "codeIcaoAirport": "DIBU", "airportId": 603}}, {"geometry": {"type": "Point", "coordinates": [-72.6847, 41.92953]}, "type": "Feature", "properties": {"codeIataAirport": "BDL", "codeIcaoAirport": "KBDL", "airportId": 604}}, {"geometry": {"type": "Point", "coordinates": [27.977222, 40.318333]}, "type": "Feature", "properties": {"codeIataAirport": "BDM", "codeIcaoAirport": "LTBG", "airportId": 605}}, {"geometry": {"type": "Point", "coordinates": [68.9, 24.633333]}, "type": "Feature", "properties": {"codeIataAirport": "BDN", "codeIcaoAirport": "OPTH", "airportId": 606}}, {"geometry": {"type": "Point", "coordinates": [107.58178, -6.904648]}, "type": "Feature", "properties": {"codeIataAirport": "BDO", "codeIcaoAirport": "WIIB", "airportId": 607}}, {"geometry": {"type": "Point", "coordinates": [88.083336, 26.533333]}, "type": "Feature", "properties": {"codeIataAirport": "BDP", "codeIcaoAirport": "VNCG", "airportId": 608}}, {"geometry": {"type": "Point", "coordinates": [73.2157, 22.329077]}, "type": "Feature", "properties": {"codeIataAirport": "BDQ", "codeIcaoAirport": "VABO", "airportId": 609}}, {"geometry": {"type": "Point", "coordinates": [-73.12444, 41.164165]}, "type": "Feature", "properties": {"codeIataAirport": "BDR", "codeIcaoAirport": "KBDR", "airportId": 610}}, {"geometry": {"type": "Point", "coordinates": [17.939053, 40.657993]}, "type": "Feature", "properties": {"codeIataAirport": "BDS", "codeIcaoAirport": "LIBR", "airportId": 611}}, {"geometry": {"type": "Point", "coordinates": [22.45, 4.083333]}, "type": "Feature", "properties": {"codeIataAirport": "BDT", "codeIcaoAirport": "FZFD", "airportId": 612}}, {"geometry": {"type": "Point", "coordinates": [18.54, 69.056114]}, "type": "Feature", "properties": {"codeIataAirport": "BDU", "codeIcaoAirport": "ENDU", "airportId": 613}}, {"geometry": {"type": "Point", "coordinates": [29.8, -7.0]}, "type": "Feature", "properties": {"codeIataAirport": "BDV", "codeIcaoAirport": "FZRB", "airportId": 614}}, {"geometry": {"type": "Point", "coordinates": [-7.376028, 57.473415]}, "type": "Feature", "properties": {"codeIataAirport": "BEB", "codeIcaoAirport": "EGPL", "airportId": 619}}, {"geometry": {"type": "Point", "coordinates": [-97.333336, 37.683334]}, "type": "Feature", "properties": {"codeIataAirport": "BEC", "codeIcaoAirport": "KBEC", "airportId": 620}}, {"geometry": {"type": "Point", "coordinates": [-71.29, 42.470833]}, "type": "Feature", "properties": {"codeIataAirport": "BED", "codeIcaoAirport": "KBED", "airportId": 621}}, {"geometry": {"type": "Point", "coordinates": [-83.76861, 11.996944]}, "type": "Feature", "properties": {"codeIataAirport": "BEF", "codeIcaoAirport": "MNBL", "airportId": 623}}, {"geometry": {"type": "Point", "coordinates": [20.306944, 44.819443]}, "type": "Feature", "properties": {"codeIataAirport": "BEG", "codeIcaoAirport": "LYBE", "airportId": 624}}, {"geometry": {"type": "Point", "coordinates": [34.533333, 9.391667]}, "type": "Feature", "properties": {"codeIataAirport": "BEI", "codeIcaoAirport": "HABE", "airportId": 626}}, {"geometry": {"type": "Point", "coordinates": [117.7, 2.166667]}, "type": "Feature", "properties": {"codeIataAirport": "BEJ", "codeIcaoAirport": "WALK", "airportId": 627}}, {"geometry": {"type": "Point", "coordinates": [-48.480003, -1.389865]}, "type": "Feature", "properties": {"codeIataAirport": "BEL", "codeIcaoAirport": "SBBE", "airportId": 629}}, {"geometry": {"type": "Point", "coordinates": [20.26489, 32.085423]}, "type": "Feature", "properties": {"codeIataAirport": "BEN", "codeIcaoAirport": "HLLB", "airportId": 630}}, {"geometry": {"type": "Point", "coordinates": [151.66667, -33.033333]}, "type": "Feature", "properties": {"codeIataAirport": "BEO", "codeIcaoAirport": "YPEC", "airportId": 631}}, {"geometry": {"type": "Point", "coordinates": [76.9, 15.183333]}, "type": "Feature", "properties": {"codeIataAirport": "BEP", "codeIcaoAirport": "VOBI", "airportId": 632}}, {"geometry": {"type": "Point", "coordinates": [-4.415827, 48.445374]}, "type": "Feature", "properties": {"codeIataAirport": "BES", "codeIcaoAirport": "LFRB", "airportId": 634}}, {"geometry": {"type": "Point", "coordinates": [-161.83139, 60.784443]}, "type": "Feature", "properties": {"codeIataAirport": "BET", "codeIcaoAirport": "PABE", "airportId": 635}}, {"geometry": {"type": "Point", "coordinates": [139.445, -24.23]}, "type": "Feature", "properties": {"codeIataAirport": "BEU", "codeIcaoAirport": "YBIE", "airportId": 636}}, {"geometry": {"type": "Point", "coordinates": [34.8, 31.25]}, "type": "Feature", "properties": {"codeIataAirport": "BEV", "codeIcaoAirport": "LLBS", "airportId": 637}}, {"geometry": {"type": "Point", "coordinates": [34.90192, -19.798805]}, "type": "Feature", "properties": {"codeIataAirport": "BEW", "codeIcaoAirport": "FQBR", "airportId": 638}}, {"geometry": {"type": "Point", "coordinates": [-1.083333, 51.63333]}, "type": "Feature", "properties": {"codeIataAirport": "BEX", "codeIcaoAirport": "EGUB", "airportId": 639}}, {"geometry": {"type": "Point", "coordinates": [35.49308, 33.826073]}, "type": "Feature", "properties": {"codeIataAirport": "BEY", "codeIcaoAirport": "OLBA", "airportId": 640}}, {"geometry": {"type": "Point", "coordinates": [176.0, -1.333333]}, "type": "Feature", "properties": {"codeIataAirport": "BEZ", "codeIcaoAirport": "NGBR", "airportId": 641}}, {"geometry": {"type": "Point", "coordinates": [-78.63944, 41.802223]}, "type": "Feature", "properties": {"codeIataAirport": "BFD", "codeIcaoAirport": "KBFD", "airportId": 645}}, {"geometry": {"type": "Point", "coordinates": [8.55, 52.016666]}, "type": "Feature", "properties": {"codeIataAirport": "BFE", "codeIcaoAirport": "EDLI", "airportId": 646}}, {"geometry": {"type": "Point", "coordinates": [-103.60111, 41.87528]}, "type": "Feature", "properties": {"codeIataAirport": "BFF", "codeIcaoAirport": "KBFF", "airportId": 647}}, {"geometry": {"type": "Point", "coordinates": [-49.23389, -25.4025]}, "type": "Feature", "properties": {"codeIataAirport": "BFH", "codeIcaoAirport": "SBBI", "airportId": 649}}, {"geometry": {"type": "Point", "coordinates": [-122.3037, 47.5371]}, "type": "Feature", "properties": {"codeIataAirport": "BFI", "codeIcaoAirport": "KBFI", "airportId": 650}}, {"geometry": {"type": "Point", "coordinates": [-119.04533, 35.429626]}, "type": "Feature", "properties": {"codeIataAirport": "BFL", "codeIcaoAirport": "KBFL", "airportId": 652}}, {"geometry": {"type": "Point", "coordinates": [-88.23333, 30.683332]}, "type": "Feature", "properties": {"codeIataAirport": "BFM", "codeIcaoAirport": "KBFM", "airportId": 653}}, {"geometry": {"type": "Point", "coordinates": [26.297516, -29.095854]}, "type": "Feature", "properties": {"codeIataAirport": "BFN", "codeIcaoAirport": "FABL", "airportId": 654}}, {"geometry": {"type": "Point", "coordinates": [31.579166, -21.009167]}, "type": "Feature", "properties": {"codeIataAirport": "BFO", "codeIcaoAirport": "FVCZ", "airportId": 655}}, {"geometry": {"type": "Point", "coordinates": [-80.4, 40.766666]}, "type": "Feature", "properties": {"codeIataAirport": "BFP", "codeIcaoAirport": "KBVI", "airportId": 656}}, {"geometry": {"type": "Point", "coordinates": [-86.48333, 38.86667]}, "type": "Feature", "properties": {"codeIataAirport": "BFR", "codeIcaoAirport": "KBFR", "airportId": 658}}, {"geometry": {"type": "Point", "coordinates": [-6.217616, 54.662395]}, "type": "Feature", "properties": {"codeIataAirport": "BFS", "codeIcaoAirport": "EGAA", "airportId": 659}}, {"geometry": {"type": "Point", "coordinates": [-80.635, 32.41083]}, "type": "Feature", "properties": {"codeIataAirport": "BFT", "codeIcaoAirport": "KBFT", "airportId": 660}}, {"geometry": {"type": "Point", "coordinates": [117.333336, 32.95]}, "type": "Feature", "properties": {"codeIataAirport": "BFU", "codeIcaoAirport": "ZSBB", "airportId": 661}}, {"geometry": {"type": "Point", "coordinates": [103.25528, 15.226944]}, "type": "Feature", "properties": {"codeIataAirport": "BFV", "codeIcaoAirport": "VTUO", "airportId": 662}}, {"geometry": {"type": "Point", "coordinates": [-0.589444, 35.171665]}, "type": "Feature", "properties": {"codeIataAirport": "BFW", "codeIcaoAirport": "DAOS", "airportId": 663}}, {"geometry": {"type": "Point", "coordinates": [10.4, 5.483333]}, "type": "Feature", "properties": {"codeIataAirport": "BFX", "codeIcaoAirport": "FKKU", "airportId": 664}}, {"geometry": {"type": "Point", "coordinates": [-73.1814, 7.128045]}, "type": "Feature", "properties": {"codeIataAirport": "BGA", "codeIcaoAirport": "SKBG", "airportId": 665}}, {"geometry": {"type": "Point", "coordinates": [11.938889, -0.106667]}, "type": "Feature", "properties": {"codeIataAirport": "BGB", "codeIcaoAirport": "FOGB", "airportId": 666}}, {"geometry": {"type": "Point", "coordinates": [-6.75, 41.816666]}, "type": "Feature", "properties": {"codeIataAirport": "BGC", "codeIcaoAirport": "LPBG", "airportId": 667}}, {"geometry": {"type": "Point", "coordinates": [-101.4, 35.65]}, "type": "Feature", "properties": {"codeIataAirport": "BGD", "codeIcaoAirport": "KBGD", "airportId": 668}}, {"geometry": {"type": "Point", "coordinates": [-84.583336, 30.916668]}, "type": "Feature", "properties": {"codeIataAirport": "BGE", "codeIcaoAirport": "KBGE", "airportId": 669}}, {"geometry": {"type": "Point", "coordinates": [18.520279, 4.396111]}, "type": "Feature", "properties": {"codeIataAirport": "BGF", "codeIcaoAirport": "FEFF", "airportId": 670}}, {"geometry": {"type": "Point", "coordinates": [-14.2, 16.633333]}, "type": "Feature", "properties": {"codeIataAirport": "BGH", "codeIcaoAirport": "GQNE", "airportId": 672}}, {"geometry": {"type": "Point", "coordinates": [-59.487835, 13.080732]}, "type": "Feature", "properties": {"codeIataAirport": "BGI", "codeIcaoAirport": "TBPB", "airportId": 673}}, {"geometry": {"type": "Point", "coordinates": [-14.5, 66.0]}, "type": "Feature", "properties": {"codeIataAirport": "BGJ", "codeIcaoAirport": "BIBF", "airportId": 674}}, {"geometry": {"type": "Point", "coordinates": [83.683334, 28.215279]}, "type": "Feature", "properties": {"codeIataAirport": "BGL", "codeIcaoAirport": "VNBL", "airportId": 676}}, {"geometry": {"type": "Point", "coordinates": [-75.98294, 42.208534]}, "type": "Feature", "properties": {"codeIataAirport": "BGM", "codeIcaoAirport": "KBGM", "airportId": 677}}, {"geometry": {"type": "Point", "coordinates": [5.228169, 60.289062]}, "type": "Feature", "properties": {"codeIataAirport": "BGO", "codeIcaoAirport": "ENBR", "airportId": 678}}, {"geometry": {"type": "Point", "coordinates": [-101.46667, 31.2]}, "type": "Feature", "properties": {"codeIataAirport": "BGQ", "codeIcaoAirport": "PAGQ", "airportId": 680}}, {"geometry": {"type": "Point", "coordinates": [-68.82102, 44.812298]}, "type": "Feature", "properties": {"codeIataAirport": "BGR", "codeIcaoAirport": "KBGR", "airportId": 681}}, {"geometry": {"type": "Point", "coordinates": [22.784445, 4.786667]}, "type": "Feature", "properties": {"codeIataAirport": "BGU", "codeIcaoAirport": "FEFG", "airportId": 684}}, {"geometry": {"type": "Point", "coordinates": [44.225, 33.255554]}, "type": "Feature", "properties": {"codeIataAirport": "BGW", "codeIcaoAirport": "ORBI", "airportId": 686}}, {"geometry": {"type": "Point", "coordinates": [-54.1125, -31.398611]}, "type": "Feature", "properties": {"codeIataAirport": "BGX", "codeIcaoAirport": "SBBG", "airportId": 687}}, {"geometry": {"type": "Point", "coordinates": [9.698713, 45.665314]}, "type": "Feature", "properties": {"codeIataAirport": "BGY", "codeIcaoAirport": "LIME", "airportId": 688}}, {"geometry": {"type": "Point", "coordinates": [-8.433333, 41.55]}, "type": "Feature", "properties": {"codeIataAirport": "BGZ", "codeIcaoAirport": "LPBR", "airportId": 689}}, {"geometry": {"type": "Point", "coordinates": [-80.416664, -0.6]}, "type": "Feature", "properties": {"codeIataAirport": "BHA", "codeIcaoAirport": "SEBC", "airportId": 690}}, {"geometry": {"type": "Point", "coordinates": [-68.361664, 44.44889]}, "type": "Feature", "properties": {"codeIataAirport": "BHB", "codeIcaoAirport": "KBHB", "airportId": 691}}, {"geometry": {"type": "Point", "coordinates": [-5.870215, 54.61452]}, "type": "Feature", "properties": {"codeIataAirport": "BHD", "codeIcaoAirport": "EGAC", "airportId": 693}}, {"geometry": {"type": "Point", "coordinates": [173.86765, -41.513588]}, "type": "Feature", "properties": {"codeIataAirport": "BHE", "codeIcaoAirport": "NZWB", "airportId": 694}}, {"geometry": {"type": "Point", "coordinates": [-84.543335, 15.734722]}, "type": "Feature", "properties": {"codeIataAirport": "BHG", "codeIcaoAirport": "MHBL", "airportId": 696}}, {"geometry": {"type": "Point", "coordinates": [42.618484, 19.994509]}, "type": "Feature", "properties": {"codeIataAirport": "BHH", "codeIcaoAirport": "OEBH", "airportId": 697}}, {"geometry": {"type": "Point", "coordinates": [-62.150555, -38.730556]}, "type": "Feature", "properties": {"codeIataAirport": "BHI", "codeIcaoAirport": "SAZB", "airportId": 698}}, {"geometry": {"type": "Point", "coordinates": [69.670555, 23.2875]}, "type": "Feature", "properties": {"codeIataAirport": "BHJ", "codeIcaoAirport": "VABJ", "airportId": 699}}, {"geometry": {"type": "Point", "coordinates": [64.47479, 39.76037]}, "type": "Feature", "properties": {"codeIataAirport": "BHK", "codeIcaoAirport": "UTSB", "airportId": 700}}, {"geometry": {"type": "Point", "coordinates": [-86.75219, 33.560833]}, "type": "Feature", "properties": {"codeIataAirport": "BHM", "codeIcaoAirport": "KBHM", "airportId": 702}}, {"geometry": {"type": "Point", "coordinates": [45.733334, 14.783333]}, "type": "Feature", "properties": {"codeIataAirport": "BHN", "codeIcaoAirport": "OYBN", "airportId": 703}}, {"geometry": {"type": "Point", "coordinates": [77.34177, 23.284761]}, "type": "Feature", "properties": {"codeIataAirport": "BHO", "codeIcaoAirport": "VABP", "airportId": 704}}, {"geometry": {"type": "Point", "coordinates": [87.05, 27.183332]}, "type": "Feature", "properties": {"codeIataAirport": "BHP", "codeIcaoAirport": "VNBJ", "airportId": 705}}, {"geometry": {"type": "Point", "coordinates": [141.46857, -31.998983]}, "type": "Feature", "properties": {"codeIataAirport": "BHQ", "codeIcaoAirport": "YBHI", "airportId": 706}}, {"geometry": {"type": "Point", "coordinates": [84.4325, 27.67639]}, "type": "Feature", "properties": {"codeIataAirport": "BHR", "codeIcaoAirport": "VNBP", "airportId": 707}}, {"geometry": {"type": "Point", "coordinates": [149.65518, -33.41387]}, "type": "Feature", "properties": {"codeIataAirport": "BHS", "codeIcaoAirport": "YBTH", "airportId": 708}}, {"geometry": {"type": "Point", "coordinates": [72.18444, 21.755]}, "type": "Feature", "properties": {"codeIataAirport": "BHU", "codeIcaoAirport": "VABV", "airportId": 710}}, {"geometry": {"type": "Point", "coordinates": [71.683334, 29.4]}, "type": "Feature", "properties": {"codeIataAirport": "BHV", "codeIcaoAirport": "OPBW", "airportId": 711}}, {"geometry": {"type": "Point", "coordinates": [-1.733256, 52.45252]}, "type": "Feature", "properties": {"codeIataAirport": "BHX", "codeIcaoAirport": "EGBB", "airportId": 713}}, {"geometry": {"type": "Point", "coordinates": [109.28785, 21.540333]}, "type": "Feature", "properties": {"codeIataAirport": "BHY", "codeIcaoAirport": "ZGBH", "airportId": 714}}, {"geometry": {"type": "Point", "coordinates": [9.480124, 42.547615]}, "type": "Feature", "properties": {"codeIataAirport": "BIA", "codeIcaoAirport": "LFKB", "airportId": 715}}, {"geometry": {"type": "Point", "coordinates": [43.63333, 3.066667]}, "type": "Feature", "properties": {"codeIataAirport": "BIB", "codeIcaoAirport": "HCMB", "airportId": 716}}, {"geometry": {"type": "Point", "coordinates": [-71.57961, 41.169434]}, "type": "Feature", "properties": {"codeIataAirport": "BID", "codeIcaoAirport": "KBID", "airportId": 718}}, {"geometry": {"type": "Point", "coordinates": [-96.75, 40.3]}, "type": "Feature", "properties": {"codeIataAirport": "BIE", "codeIcaoAirport": "BIES", "airportId": 719}}, {"geometry": {"type": "Point", "coordinates": [-106.48333, 31.75]}, "type": "Feature", "properties": {"codeIataAirport": "BIF", "codeIcaoAirport": "KBIF", "airportId": 720}}, {"geometry": {"type": "Point", "coordinates": [-145.73277, 64.06778]}, "type": "Feature", "properties": {"codeIataAirport": "BIG", "codeIcaoAirport": "PABI", "airportId": 721}}, {"geometry": {"type": "Point", "coordinates": [-118.365, 37.373333]}, "type": "Feature", "properties": {"codeIataAirport": "BIH", "codeIcaoAirport": "KBIH", "airportId": 722}}, {"geometry": {"type": "Point", "coordinates": [136.10582, -1.191919]}, "type": "Feature", "properties": {"codeIataAirport": "BIK", "codeIcaoAirport": "WABB", "airportId": 724}}, {"geometry": {"type": "Point", "coordinates": [-108.53723, 45.803417]}, "type": "Feature", "properties": {"codeIataAirport": "BIL", "codeIcaoAirport": "KBIL", "airportId": 725}}, {"geometry": {"type": "Point", "coordinates": [-79.28333, 25.7]}, "type": "Feature", "properties": {"codeIataAirport": "BIM", "codeIcaoAirport": "MYBS", "airportId": 726}}, {"geometry": {"type": "Point", "coordinates": [67.82361, 34.80417]}, "type": "Feature", "properties": {"codeIataAirport": "BIN", "codeIcaoAirport": "OABN", "airportId": 727}}, {"geometry": {"type": "Point", "coordinates": [-2.905808, 43.305534]}, "type": "Feature", "properties": {"codeIataAirport": "BIO", "codeIcaoAirport": "LEBB", "airportId": 728}}, {"geometry": {"type": "Point", "coordinates": [-1.531242, 43.472416]}, "type": "Feature", "properties": {"codeIataAirport": "BIQ", "codeIcaoAirport": "LFBZ", "airportId": 730}}, {"geometry": {"type": "Point", "coordinates": [87.28333, 26.434723]}, "type": "Feature", "properties": {"codeIataAirport": "BIR", "codeIcaoAirport": "VNVT", "airportId": 731}}, {"geometry": {"type": "Point", "coordinates": [-100.75821, 46.77448]}, "type": "Feature", "properties": {"codeIataAirport": "BIS", "codeIcaoAirport": "KBIS", "airportId": 732}}, {"geometry": {"type": "Point", "coordinates": [80.5, 29.0]}, "type": "Feature", "properties": {"codeIataAirport": "BIT", "codeIcaoAirport": "VNBT", "airportId": 733}}, {"geometry": {"type": "Point", "coordinates": [-23.983334, 65.833336]}, "type": "Feature", "properties": {"codeIataAirport": "BIU", "codeIcaoAirport": "BIBD", "airportId": 734}}, {"geometry": {"type": "Point", "coordinates": [21.983334, 6.533333]}, "type": "Feature", "properties": {"codeIataAirport": "BIV", "codeIcaoAirport": "KBIV", "airportId": 735}}, {"geometry": {"type": "Point", "coordinates": [27.283333, -35.88333]}, "type": "Feature", "properties": {"codeIataAirport": "BIY", "codeIcaoAirport": "FABE", "airportId": 738}}, {"geometry": {"type": "Point", "coordinates": [5.083333, 36.75]}, "type": "Feature", "properties": {"codeIataAirport": "BJA", "codeIcaoAirport": "DAAE", "airportId": 739}}, {"geometry": {"type": "Point", "coordinates": [57.30885, 37.48972]}, "type": "Feature", "properties": {"codeIataAirport": "BJB", "codeIcaoAirport": "OIMN", "airportId": 740}}, {"geometry": {"type": "Point", "coordinates": [-105.066666, 39.933334]}, "type": "Feature", "properties": {"codeIataAirport": "BJC", "codeIcaoAirport": "KBJC", "airportId": 741}}, {"geometry": {"type": "Point", "coordinates": [-14.75, 66.066666]}, "type": "Feature", "properties": {"codeIataAirport": "BJD", "codeIcaoAirport": "BIBK", "airportId": 742}}, {"geometry": {"type": "Point", "coordinates": [29.666668, 70.6]}, "type": "Feature", "properties": {"codeIataAirport": "BJF", "codeIcaoAirport": "ENBS", "airportId": 744}}, {"geometry": {"type": "Point", "coordinates": [81.25, 29.55]}, "type": "Feature", "properties": {"codeIataAirport": "BJH", "codeIcaoAirport": "VNBG", "airportId": 746}}, {"geometry": {"type": "Point", "coordinates": [-94.93472, 47.509724]},