{"type": "FeatureCollection", "features": [{"geometry": {"type": "Point", "coordinates": [-145.41667, -17.05]}, "type": "Feature", "properties": {"codeIataAirport": "AAA", "airportId": 1}}, {"geometry": {"type": "Point", "coordinates": [141.04167, -26.7]}, "type": "Feature", "properties": {"codeIataAirport": "AAB", "airportId": 2}}, {"geometry": {"type": "Point", "coordinates": [33.75, 31.133333]}, "type": "Feature", "properties": {"codeIataAirport": "AAC", "airportId": 3}}, {"geometry": {"type": "Point", "coordinates": [7.811857, 36.821392]}, "type": "Feature", "properties": {"codeIataAirport": "AAE", "airportId": 4}}, {"geometry": {"type": "Point", "coordinates": [-84.98333, 29.733334]}, "type": "Feature", "properties": {"codeIataAirport": "AAF", "airportId": 5}}, {"geometry": {"type": "Point", "coordinates": [-49.79, -24.103611]}, "type": "Feature", "properties": {"codeIataAirport": "AAG", "airportId": 6}}, {"geometry": {"type": "Point", "coordinates": [6.133333, 50.75]}, "type": "Feature", "properties": {"codeIataAirport": "AAH", "airportId": 7}}, {"geometry": {"type": "Point", "coordinates": [-46.933334, -12.916667]}, "type": "Feature", "properties": {"codeIataAirport": "AAI", "airportId": 8}}, {"geometry": {"type": "Point", "coordinates": [-55.36667, 3.9]}, "type": "Feature", "properties": {"codeIataAirport": "AAJ", "airportId": 9}}, {"geometry": {"type": "Point", "coordinates": [173.58333, 0.166667]}, "type": "Feature", "properties": {"codeIataAirport": "AAK", "airportId": 10}}, {"geometry": {"type": "Point", "coordinates": [9.872241, 57.08655]}, "type": "Feature", "properties": {"codeIataAirport": "AAL", "airportId": 11}}, {"geometry": {"type": "Point", "coordinates": [31.533333, -24.8]}, "type": "Feature", "properties": {"codeIataAirport": "AAM", "airportId": 12}}, {"geometry": {"type": "Point", "coordinates": [55.616627, 24.260231]}, "type": "Feature", "properties": {"codeIataAirport": "AAN", "airportId": 13}}, {"geometry": {"type": "Point", "coordinates": [-64.46389, 9.431944]}, "type": "Feature", "properties": {"codeIataAirport": "AAO", "airportId": 14}}, {"geometry": {"type": "Point", "coordinates": [37.316666, 44.9]}, "type": "Feature", "properties": {"codeIataAirport": "AAQ", "airportId": 15}}, {"geometry": {"type": "Point", "coordinates": [10.626351, 56.30823]}, "type": "Feature", "properties": {"codeIataAirport": "AAR", "airportId": 16}}, {"geometry": {"type": "Point", "coordinates": [139.25, -3.916667]}, "type": "Feature", "properties": {"codeIataAirport": "AAS", "airportId": 17}}, {"geometry": {"type": "Point", "coordinates": [88.08444, 47.750362]}, "type": "Feature", "properties": {"codeIataAirport": "AAT", "airportId": 18}}, {"geometry": {"type": "Point", "coordinates": [-172.6, -13.458333]}, "type": "Feature", "properties": {"codeIataAirport": "AAU", "airportId": 19}}, {"geometry": {"type": "Point", "coordinates": [124.76667, 6.333333]}, "type": "Feature", "properties": {"codeIataAirport": "AAV", "airportId": 20}}, {"geometry": {"type": "Point", "coordinates": [73.25, 34.2]}, "type": "Feature", "properties": {"codeIataAirport": "AAW", "airportId": 21}}, {"geometry": {"type": "Point", "coordinates": [-46.92917, -19.568056]}, "type": "Feature", "properties": {"codeIataAirport": "AAX", "airportId": 22}}, {"geometry": {"type": "Point", "coordinates": [52.173256, 16.19596]}, "type": "Feature", "properties": {"codeIataAirport": "AAY", "airportId": 23}}, {"geometry": {"type": "Point", "coordinates": [-91.5, 14.87]}, "type": "Feature", "properties": {"codeIataAirport": "AAZ", "airportId": 24}}, {"geometry": {"type": "Point", "coordinates": [91.5, 53.716667]}, "type": "Feature", "properties": {"codeIataAirport": "ABA", "airportId": 25}}, {"geometry": {"type": "Point", "coordinates": [-1.283333, 51.666668]}, "type": "Feature", "properties": {"codeIataAirport": "ABB", "airportId": 26}}, {"geometry": {"type": "Point", "coordinates": [-1.863333, 38.948334]}, "type": "Feature", "properties": {"codeIataAirport": "ABC", "airportId": 27}}, {"geometry": {"type": "Point", "coordinates": [48.226597, 30.363905]}, "type": "Feature", "properties": {"codeIataAirport": "ABD", "airportId": 28}}, {"geometry": {"type": "Point", "coordinates": [-75.434364, 40.651573]}, "type": "Feature", "properties": {"codeIataAirport": "ABE", "airportId": 29}}, {"geometry": {"type": "Point", "coordinates": [173.30417, 1.670833]}, "type": "Feature", "properties": {"codeIataAirport": "ABF", "airportId": 30}}, {"geometry": {"type": "Point", "coordinates": [143.2, -17.666668]}, "type": "Feature", "properties": {"codeIataAirport": "ABG", "airportId": 31}}, {"geometry": {"type": "Point", "coordinates": [146.63333, -23.65]}, "type": "Feature", "properties": {"codeIataAirport": "ABH", "airportId": 32}}, {"geometry": {"type": "Point", "coordinates": [-99.679726, 32.409443]}, "type": "Feature", "properties": {"codeIataAirport": "ABI", "airportId": 33}}, {"geometry": {"type": "Point", "coordinates": [-3.933015, 5.254879]}, "type": "Feature", "properties": {"codeIataAirport": "ABJ", "airportId": 34}}, {"geometry": {"type": "Point", "coordinates": [44.26611, 6.733889]}, "type": "Feature", "properties": {"codeIataAirport": "ABK", "airportId": 35}}, {"geometry": {"type": "Point", "coordinates": [-157.84584, 67.0875]}, "type": "Feature", "properties": {"codeIataAirport": "ABL", "airportId": 36}}, {"geometry": {"type": "Point", "coordinates": [142.45033, -10.942619]}, "type": "Feature", "properties": {"codeIataAirport": "ABM", "airportId": 37}}, {"geometry": {"type": "Point", "coordinates": [-54.083332, 5.5]}, "type": "Feature", "properties": {"codeIataAirport": "ABN", "airportId": 38}}, {"geometry": {"type": "Point", "coordinates": [-3.216667, 5.433333]}, "type": "Feature", "properties": {"codeIataAirport": "ABO", "airportId": 39}}, {"geometry": {"type": "Point", "coordinates": [141.1, -6.066667]}, "type": "Feature", "properties": {"codeIataAirport": "ABP", "airportId": 40}}, {"geometry": {"type": "Point", "coordinates": [-106.617195, 35.049625]}, "type": "Feature", "properties": {"codeIataAirport": "ABQ", "airportId": 41}}, {"geometry": {"type": "Point", "coordinates": [-98.42611, 45.4525]}, "type": "Feature", "properties": {"codeIataAirport": "ABR", "airportId": 42}}, {"geometry": {"type": "Point", "coordinates": [31.609774, 22.367567]}, "type": "Feature", "properties": {"codeIataAirport": "ABS", "airportId": 43}}, {"geometry": {"type": "Point", "coordinates": [41.64002, 20.29401]}, "type": "Feature", "properties": {"codeIataAirport": "ABT", "airportId": 44}}, {"geometry": {"type": "Point", "coordinates": [124.88333, -9.133333]}, "type": "Feature", "properties": {"codeIataAirport": "ABU", "airportId": 45}}, {"geometry": {"type": "Point", "coordinates": [7.270447, 9.004614]}, "type": "Feature", "properties": {"codeIataAirport": "ABV", "airportId": 46}}, {"geometry": {"type": "Point", "coordinates": [148.7, -10.183333]}, "type": "Feature", "properties": {"codeIataAirport": "ABW", "airportId": 47}}, {"geometry": {"type": "Point", "coordinates": [146.95453, -36.069626]}, "type": "Feature", "properties": {"codeIataAirport": "ABX", "airportId": 48}}, {"geometry": {"type": "Point", "coordinates": [-84.19611, 31.532223]}, "type": "Feature", "properties": {"codeIataAirport": "ABY", "airportId": 49}}, {"geometry": {"type": "Point", "coordinates": [-2.204186, 57.200253]}, "type": "Feature", "properties": {"codeIataAirport": "ABZ", "airportId": 50}}, {"geometry": {"type": "Point", "coordinates": [-99.75459, 16.762403]}, "type": "Feature", "properties": {"codeIataAirport": "ACA", "airportId": 51}}, {"geometry": {"type": "Point", "coordinates": [-85.21667, 44.983334]}, "type": "Feature", "properties": {"codeIataAirport": "ACB", "airportId": 52}}, {"geometry": {"type": "Point", "coordinates": [-0.171769, 5.60737]}, "type": "Feature", "properties": {"codeIataAirport": "ACC", "airportId": 53}}, {"geometry": {"type": "Point", "coordinates": [-77.3, 8.516667]}, "type": "Feature", "properties": {"codeIataAirport": "ACD", "airportId": 54}}, {"geometry": {"type": "Point", "coordinates": [-13.609059, 28.950668]}, "type": "Feature", "properties": {"codeIataAirport": "ACE", "airportId": 55}}, {"geometry": {"type": "Point", "coordinates": [9.566667, 47.483334]}, "type": "Feature", "properties": {"codeIataAirport": "ACH", "airportId": 56}}, {"geometry": {"type": "Point", "coordinates": [-2.215369, 49.709347]}, "type": "Feature", "properties": {"codeIataAirport": "ACI", "airportId": 57}}, {"geometry": {"type": "Point", "coordinates": [80.38333, 8.35]}, "type": "Feature", "properties": {"codeIataAirport": "ACJ", "airportId": 58}}, {"geometry": {"type": "Point", "coordinates": [-70.05972, 41.256668]}, "type": "Feature", "properties": {"codeIataAirport": "ACK", "airportId": 59}}, {"geometry": {"type": "Point", "coordinates": [-73.0, 4.75]}, "type": "Feature", "properties": {"codeIataAirport": "ACL", "airportId": 60}}, {"geometry": {"type": "Point", "coordinates": [-71.833336, -2.0]}, "type": "Feature", "properties": {"codeIataAirport": "ACM", "airportId": 61}}, {"geometry": {"type": "Point", "coordinates": [-100.916664, 29.3]}, "type": "Feature", "properties": {"codeIataAirport": "ACN", "airportId": 62}}, {"geometry": {"type": "Point", "coordinates": [46.145115, 37.347244]}, "type": "Feature", "properties": {"codeIataAirport": "ACP", "airportId": 63}}, {"geometry": {"type": "Point", "coordinates": [-72.3, -0.383333]}, "type": "Feature", "properties": {"codeIataAirport": "ACR", "airportId": 64}}, {"geometry": {"type": "Point", "coordinates": [90.566666, 56.266666]}, "type": "Feature", "properties": {"codeIataAirport": "ACS", "airportId": 65}}, {"geometry": {"type": "Point", "coordinates": [-97.22321, 31.609133]}, "type": "Feature", "properties": {"codeIataAirport": "ACT", "airportId": 66}}, {"geometry": {"type": "Point", "coordinates": [-79.72444, 9.576389]}, "type": "Feature", "properties": {"codeIataAirport": "ACU", "airportId": 67}}, {"geometry": {"type": "Point", "coordinates": [-124.106926, 40.970913]}, "type": "Feature", "properties": {"codeIataAirport": "ACV", "airportId": 68}}, {"geometry": {"type": "Point", "coordinates": [104.95944, 25.085556]}, "type": "Feature", "properties": {"codeIataAirport": "ACX", "airportId": 69}}, {"geometry": {"type": "Point", "coordinates": [-74.572235, 39.450703]}, "type": "Feature", "properties": {"codeIataAirport": "ACY", "airportId": 70}}, {"geometry": {"type": "Point", "coordinates": [61.542244, 31.087694]}, "type": "Feature", "properties": {"codeIataAirport": "ACZ", "airportId": 71}}, {"geometry": {"type": "Point", "coordinates": [35.29736, 36.98503]}, "type": "Feature", "properties": {"codeIataAirport": "ADA", "airportId": 72}}, {"geometry": {"type": "Point", "coordinates": [27.147594, 38.294403]}, "type": "Feature", "properties": {"codeIataAirport": "ADB", "airportId": 73}}, {"geometry": {"type": "Point", "coordinates": [145.73334, -7.133333]}, "type": "Feature", "properties": {"codeIataAirport": "ADC", "airportId": 74}}, {"geometry": {"type": "Point", "coordinates": [38.7959, 8.983759]}, "type": "Feature", "properties": {"codeIataAirport": "ADD", "airportId": 75}}, {"geometry": {"type": "Point", "coordinates": [45.037537, 12.826116]}, "type": "Feature", "properties": {"codeIataAirport": "ADE", "airportId": 76}}, {"geometry": {"type": "Point", "coordinates": [38.266666, 37.75]}, "type": "Feature", "properties": {"codeIataAirport": "ADF", "airportId": 77}}, {"geometry": {"type": "Point", "coordinates": [-84.03333, 41.9]}, "type": "Feature", "properties": {"codeIataAirport": "ADG", "airportId": 78}}, {"geometry": {"type": "Point", "coordinates": [125.4, 58.6]}, "type": "Feature", "properties": {"codeIataAirport": "ADH", "airportId": 79}}, {"geometry": {"type": "Point", "coordinates": [15.0, -22.4]}, "type": "Feature", "properties": {"codeIataAirport": "ADI", "airportId": 80}}, {"geometry": {"type": "Point", "coordinates": [35.98277, 31.97533]}, "type": "Feature", "properties": {"codeIataAirport": "ADJ", "airportId": 81}}, {"geometry": {"type": "Point", "coordinates": [-176.64473, 51.88278]}, "type": "Feature", "properties": {"codeIataAirport": "ADK", "airportId": 82}}, {"geometry": {"type": "Point", "coordinates": [138.53735, -34.938175]}, "type": "Feature", "properties": {"codeIataAirport": "ADL", "airportId": 83}}, {"geometry": {"type": "Point", "coordinates": [-97.01945, 34.303055]}, "type": "Feature", "properties": {"codeIataAirport": "ADM", "airportId": 84}}, {"geometry": {"type": "Point", "coordinates": [-75.933334, 5.666667]}, "type": "Feature", "properties": {"codeIataAirport": "ADN", "airportId": 85}}, {"geometry": {"type": "Point", "coordinates": [137.15, -31.016666]}, "type": "Feature", "properties": {"codeIataAirport": "ADO", "airportId": 86}}, {"geometry": {"type": "Point", "coordinates": [81.625275, 7.336389]}, "type": "Feature", "properties": {"codeIataAirport": "ADP", "airportId": 87}}, {"geometry": {"type": "Point", "coordinates": [-152.51297, 57.755276]}, "type": "Feature", "properties": {"codeIataAirport": "ADQ", "airportId": 88}}, {"geometry": {"type": "Point", "coordinates": [-79.566666, 33.45]}, "type": "Feature", "properties": {"codeIataAirport": "ADR", "airportId": 89}}, {"geometry": {"type": "Point", "coordinates": [-97.3, 32.783333]}, "type": "Feature", "properties": {"codeIataAirport": "ADS", "airportId": 90}}, {"geometry": {"type": "Point", "coordinates": [-96.666664, 34.8]}, "type": "Feature", "properties": {"codeIataAirport": "ADT", "airportId": 91}}, {"geometry": {"type": "Point", "coordinates": [48.42125, 38.323826]}, "type": "Feature", "properties": {"codeIataAirport": "ADU", "airportId": 92}}, {"geometry": {"type": "Point", "coordinates": [-76.86667, 38.816666]}, "type": "Feature", "properties": {"codeIataAirport": "ADW", "airportId": 93}}, {"geometry": {"type": "Point", "coordinates": [-2.866667, 56.36667]}, "type": "Feature", "properties": {"codeIataAirport": "ADX", "airportId": 94}}, {"geometry": {"type": "Point", "coordinates": [29.05, -22.666668]}, "type": "Feature", "properties": {"codeIataAirport": "ADY", "airportId": 95}}, {"geometry": {"type": "Point", "coordinates": [-81.70221, 12.586047]}, "type": "Feature", "properties": {"codeIataAirport": "ADZ", "airportId": 96}}, {"geometry": {"type": "Point", "coordinates": [173.85, 0.483333]}, "type": "Feature", "properties": {"codeIataAirport": "AEA", "airportId": 97}}, {"geometry": {"type": "Point", "coordinates": [106.96777, 23.71947]}, "type": "Feature", "properties": {"codeIataAirport": "AEB", "airportId": 98}}, {"geometry": {"type": "Point", "coordinates": [-152.9, 58.033333]}, "type": "Feature", "properties": {"codeIataAirport": "AED", "airportId": 99}}, {"geometry": {"type": "Point", "coordinates": [32.96096, 10.05667]}, "type": "Feature", "properties": {"codeIataAirport": "AEE", "airportId": 100}}, {"geometry": {"type": "Point", "coordinates": [99.416664, 1.399722]}, "type": "Feature", "properties": {"codeIataAirport": "AEG", "airportId": 101}}, {"geometry": {"type": "Point", "coordinates": [20.850834, 13.851389]}, "type": "Feature", "properties": {"codeIataAirport": "AEH", "airportId": 102}}, {"geometry": {"type": "Point", "coordinates": [-5.441301, 36.1289]}, "type": "Feature", "properties": {"codeIataAirport": "AEI", "airportId": 103}}, {"geometry": {"type": "Point", "coordinates": [146.28334, -7.366667]}, "type": "Feature", "properties": {"codeIataAirport": "AEK", "airportId": 104}}, {"geometry": {"type": "Point", "coordinates": [-93.36667, 43.65]}, "type": "Feature", "properties": {"codeIataAirport": "AEL", "airportId": 105}}, {"geometry": {"type": "Point", "coordinates": [-9.635556, 16.709167]}, "type": "Feature", "properties": {"codeIataAirport": "AEO", "airportId": 106}}, {"geometry": {"type": "Point", "coordinates": [-58.41667, -34.55622]}, "type": "Feature", "properties": {"codeIataAirport": "AEP", "airportId": 107}}, {"geometry": {"type": "Point", "coordinates": [39.941105, 43.44884]}, "type": "Feature", "properties": {"codeIataAirport": "AER", "airportId": 108}}, {"geometry": {"type": "Point", "coordinates": [6.116605, 62.559643]}, "type": "Feature", "properties": {"codeIataAirport": "AES", "airportId": 109}}, {"geometry": {"type": "Point", "coordinates": [-152.65834, 66.56167]}, "type": "Feature", "properties": {"codeIataAirport": "AET", "airportId": 110}}, {"geometry": {"type": "Point", "coordinates": [55.041668, 25.8875]}, "type": "Feature", "properties": {"codeIataAirport": "AEU", "airportId": 111}}, {"geometry": {"type": "Point", "coordinates": [-92.53958, 31.321268]}, "type": "Feature", "properties": {"codeIataAirport": "AEX", "airportId": 112}}, {"geometry": {"type": "Point", "coordinates": [-18.075068, 65.654564]}, "type": "Feature", "properties": {"codeIataAirport": "AEY", "airportId": 113}}, {"geometry": {"type": "Point", "coordinates": [-68.40056, -34.58917]}, "type": "Feature", "properties": {"codeIataAirport": "AFA", "airportId": 114}}, {"geometry": {"type": "Point", "coordinates": [26.883333, -33.583332]}, "type": "Feature", "properties": {"codeIataAirport": "AFD", "airportId": 115}}, {"geometry": {"type": "Point", "coordinates": [-104.7, 38.833332]}, "type": "Feature", "properties": {"codeIataAirport": "AFF", "airportId": 116}}, {"geometry": {"type": "Point", "coordinates": [-75.066666, 6.916667]}, "type": "Feature", "properties": {"codeIataAirport": "AFI", "airportId": 117}}, {"geometry": {"type": "Point", "coordinates": [-96.00694, 40.668888]}, "type": "Feature", "properties": {"codeIataAirport": "AFK", "airportId": 118}}, {"geometry": {"type": "Point", "coordinates": [-56.104767, -9.872456]}, "type": "Feature", "properties": {"codeIataAirport": "AFL", "airportId": 119}}, {"geometry": {"type": "Point", "coordinates": [-72.066666, 42.833332]}, "type": "Feature", "properties": {"codeIataAirport": "AFN", "airportId": 120}}, {"geometry": {"type": "Point", "coordinates": [-110.933334, 42.733334]}, "type": "Feature", "properties": {"codeIataAirport": "AFO", "airportId": 121}}, {"geometry": {"type": "Point", "coordinates": [148.38333, -9.133333]}, "type": "Feature", "properties": {"codeIataAirport": "AFR", "airportId": 122}}, {"geometry": {"type": "Point", "coordinates": [64.233055, 41.61361]}, "type": "Feature", "properties": {"codeIataAirport": "AFS", "airportId": 123}}, {"geometry": {"type": "Point", "coordinates": [160.85, -9.2]}, "type": "Feature", "properties": {"codeIataAirport": "AFT", "airportId": 124}}, {"geometry": {"type": "Point", "coordinates": [-97.316666, 32.986668]}, "type": "Feature", "properties": {"codeIataAirport": "AFW", "airportId": 125}}, {"geometry": {"type": "Point", "coordinates": [30.6, 38.733334]}, "type": "Feature", "properties": {"codeIataAirport": "AFY", "airportId": 126}}, {"geometry": {"type": "Point", "coordinates": [57.60332, 36.171513]}, "type": "Feature", "properties": {"codeIataAirport": "AFZ", "airportId": 127}}, {"geometry": {"type": "Point", "coordinates": [-9.555895, 30.378326]}, "type": "Feature", "properties": {"codeIataAirport": "AGA", "airportId": 128}}, {"geometry": {"type": "Point", "coordinates": [10.931667, 48.425278]}, "type": "Feature", "properties": {"codeIataAirport": "AGB", "airportId": 129}}, {"geometry": {"type": "Point", "coordinates": [-79.93, 40.35472]}, "type": "Feature", "properties": {"codeIataAirport": "AGC", "airportId": 130}}, {"geometry": {"type": "Point", "coordinates": [133.86667, -1.383333]}, "type": "Feature", "properties": {"codeIataAirport": "AGD", "airportId": 131}}, {"geometry": {"type": "Point", "coordinates": [7.916667, 53.783333]}, "type": "Feature", "properties": {"codeIataAirport": "AGE", "airportId": 132}}, {"geometry": {"type": "Point", "coordinates": [0.598611, 44.17361]}, "type": "Feature", "properties": {"codeIataAirport": "AGF", "airportId": 133}}, {"geometry": {"type": "Point", "coordinates": [144.07388, -4.168611]}, "type": "Feature", "properties": {"codeIataAirport": "AGG", "airportId": 134}}, {"geometry": {"type": "Point", "coordinates": [12.8625, 56.293056]}, "type": "Feature", "properties": {"codeIataAirport": "AGH", "airportId": 135}}, {"geometry": {"type": "Point", "coordinates": [-56.833332, 5.833333]}, "type": "Feature", "properties": {"codeIataAirport": "AGI", "airportId": 136}}, {"geometry": {"type": "Point", "coordinates": [127.23805, 26.589722]}, "type": "Feature", "properties": {"codeIataAirport": "AGJ", "airportId": 137}}, {"geometry": {"type": "Point", "coordinates": [143.84666, -6.403333]}, "type": "Feature", "properties": {"codeIataAirport": "AGK", "airportId": 138}}, {"geometry": {"type": "Point", "coordinates": [149.15527, -9.340278]}, "type": "Feature", "properties": {"codeIataAirport": "AGL", "airportId": 139}}, {"geometry": {"type": "Point", "coordinates": [-37.683334, 65.6]}, "type": "Feature", "properties": {"codeIataAirport": "AGM", "airportId": 140}}, {"geometry": {"type": "Point", "coordinates": [-134.58333, 57.503887]}, "type": "Feature", "properties": {"codeIataAirport": "AGN", "airportId": 141}}, {"geometry": {"type": "Point", "coordinates": [-93.23333, 33.266666]}, "type": "Feature", "properties": {"codeIataAirport": "AGO", "airportId": 142}}, {"geometry": {"type": "Point", "coordinates": [-4.489616, 36.675182]}, "type": "Feature", "properties": {"codeIataAirport": "AGP", "airportId": 143}}, {"geometry": {"type": "Point", "coordinates": [77.962776, 27.158333]}, "type": "Feature", "properties": {"codeIataAirport": "AGR", "airportId": 144}}, {"geometry": {"type": "Point", "coordinates": [-81.973434, 33.373665]}, "type": "Feature", "properties": {"codeIataAirport": "AGS", "airportId": 145}}, {"geometry": {"type": "Point", "coordinates": [-54.833332, -25.5]}, "type": "Feature", "properties": {"codeIataAirport": "AGT", "airportId": 146}}, {"geometry": {"type": "Point", "coordinates": [-102.31374, 21.701416]}, "type": "Feature", "properties": {"codeIataAirport": "AGU", "airportId": 147}}, {"geometry": {"type": "Point", "coordinates": [-69.23333, 9.552222]}, "type": "Feature", "properties": {"codeIataAirport": "AGV", "airportId": 148}}, {"geometry": {"type": "Point", "coordinates": [142.15, -12.15]}, "type": "Feature", "properties": {"codeIataAirport": "AGW", "airportId": 149}}, {"geometry": {"type": "Point", "coordinates": [72.17987, 10.828967]}, "type": "Feature", "properties": {"codeIataAirport": "AGX", "airportId": 150}}, {"geometry": {"type": "Point", "coordinates": [18.85, -29.05]}, "type": "Feature", "properties": {"codeIataAirport": "AGZ", "airportId": 151}}, {"geometry": {"type": "Point", "coordinates": [127.65, 26.2]}, "type": "Feature", "properties": {"codeIataAirport": "AHA", "airportId": 152}}, {"geometry": {"type": "Point", "coordinates": [42.657574, 18.23429]}, "type": "Feature", "properties": {"codeIataAirport": "AHB", "airportId": 153}}, {"geometry": {"type": "Point", "coordinates": [-120.13333, 40.15]}, "type": "Feature", "properties": {"codeIataAirport": "AHC", "airportId": 154}}, {"geometry": {"type": "Point", "coordinates": [-97.13333, 34.166668]}, "type": "Feature", "properties": {"codeIataAirport": "AHD", "airportId": 155}}, {"geometry": {"type": "Point", "coordinates": [-146.25694, -14.428056]}, "type": "Feature", "properties": {"codeIataAirport": "AHE", "airportId": 156}}, {"geometry": {"type": "Point", "coordinates": [-99.9, 40.3]}, "type": "Feature", "properties": {"codeIataAirport": "AHF", "airportId": 157}}, {"geometry": {"type": "Point", "coordinates": [-92.35, 45.3]}, "type": "Feature", "properties": {"codeIataAirport": "AHH", "airportId": 158}}, {"geometry": {"type": "Point", "coordinates": [128.91667, -3.333333]}, "type": "Feature", "properties": {"codeIataAirport": "AHI", "airportId": 159}}, {"geometry": {"type": "Point", "coordinates": [-59.316666, 2.483333]}, "type": "Feature", "properties": {"codeIataAirport": "AHL", "airportId": 160}}, {"geometry": {"type": "Point", "coordinates": [0.0, 0.0]}, "type": "Feature", "properties": {"codeIataAirport": "AHM", "airportId": 161}}, {"geometry": {"type": "Point", "coordinates": [-83.32472, 33.95195]}, "type": "Feature", "properties": {"codeIataAirport": "AHN", "airportId": 162}}, {"geometry": {"type": "Point", "coordinates": [8.295891, 40.630405]}, "type": "Feature", "properties": {"codeIataAirport": "AHO", "airportId": 163}}, {"geometry": {"type": "Point", "coordinates": [-84.425, 15.441667]}, "type": "Feature", "properties": {"codeIataAirport": "AHS", "airportId": 164}}, {"geometry": {"type": "Point", "coordinates": [-3.836944, 35.17972]}, "type": "Feature", "properties": {"codeIataAirport": "AHU", "airportId": 165}}, {"geometry": {"type": "Point", "coordinates": [48.74668, 31.34292]}, "type": "Feature", "properties": {"codeIataAirport": "AHW", "airportId": 166}}, {"geometry": {"type": "Point", "coordinates": [45.533333, -20.016666]}, "type": "Feature", "properties": {"codeIataAirport": "AHY", "airportId": 167}}, {"geometry": {"type": "Point", "coordinates": [6.083333, 45.083332]}, "type": "Feature", "properties": {"codeIataAirport": "AHZ", "airportId": 168}}, {"geometry": {"type": "Point", "coordinates": [-102.80666, 42.051666]}, "type": "Feature", "properties": {"codeIataAirport": "AIA", "airportId": 169}}, {"geometry": {"type": "Point", "coordinates": [-132.38333, 56.233334]}, "type": "Feature", "properties": {"codeIataAirport": "AIB", "airportId": 170}}, {"geometry": {"type": "Point", "coordinates": [170.83333, 7.5]}, "type": "Feature", "properties": {"codeIataAirport": "AIC", "airportId": 171}}, {"geometry": {"type": "Point", "coordinates": [-85.683334, 40.166668]}, "type": "Feature", "properties": {"codeIataAirport": "AID", "airportId": 172}}, {"geometry": {"type": "Point", "coordinates": [144.66667, -5.166667]}, "type": "Feature", "properties": {"codeIataAirport": "AIE", "airportId": 173}}, {"geometry": {"type": "Point", "coordinates": [-50.416668, -22.666668]}, "type": "Feature", "properties": {"codeIataAirport": "AIF", "airportId": 174}}, {"geometry": {"type": "Point", "coordinates": [23.25, 6.516667]}, "type": "Feature", "properties": {"codeIataAirport": "AIG", "airportId": 175}}, {"geometry": {"type": "Point", "coordinates": [141.26639, -7.348611]}, "type": "Feature", "properties": {"codeIataAirport": "AIH", "airportId": 176}}, {"geometry": {"type": "Point", "coordinates": [42.716667, 11.15]}, "type": "Feature", "properties": {"codeIataAirport": "AII", "airportId": 177}}, {"geometry": {"type": "Point", "coordinates": [-81.71667, 33.566666]}, "type": "Feature", "properties": {"codeIataAirport": "AIK", "airportId": 178}}, {"geometry": {"type": "Point", "coordinates": [-78.083336, 9.25]}, "type": "Feature", "properties": {"codeIataAirport": "AIL", "airportId": 179}}, {"geometry": {"type": "Point", "coordinates": [169.98334, 10.2]}, "type": "Feature", "properties": {"codeIataAirport": "AIM", "airportId": 180}}, {"geometry": {"type": "Point", "coordinates": [-160.03334, 70.63333]}, "type": "Feature", "properties": {"codeIataAirport": "AIN", "airportId": 181}}, {"geometry": {"type": "Point", "coordinates": [-95.01667, 41.4]}, "type": "Feature", "properties": {"codeIataAirport": "AIO", "airportId": 182}}, {"geometry": {"type": "Point", "coordinates": [168.81667, 7.266667]}, "type": "Feature", "properties": {"codeIataAirport": "AIP", "airportId": 183}}, {"geometry": {"type": "Point", "coordinates": [-59.38333, -10.25]}, "type": "Feature", "properties": {"codeIataAirport": "AIR", "airportId": 184}}, {"geometry": {"type": "Point", "coordinates": [176.83333, -2.65]}, "type": "Feature", "properties": {"codeIataAirport": "AIS", "airportId": 185}}, {"geometry": {"type": "Point", "coordinates": [-159.767, -18.829443]}, "type": "Feature", "properties": {"codeIataAirport": "AIT", "airportId": 186}}, {"geometry": {"type": "Point", "coordinates": [-158.1, -20.033333]}, "type": "Feature", "properties": {"codeIataAirport": "AIU", "airportId": 187}}, {"geometry": {"type": "Point", "coordinates": [-88.15, 33.13333]}, "type": "Feature", "properties": {"codeIataAirport": "AIV", "airportId": 188}}, {"geometry": {"type": "Point", "coordinates": [17.583332, -27.983334]}, "type": "Feature", "properties": {"codeIataAirport": "AIW", "airportId": 189}}, {"geometry": {"type": "Point", "coordinates": [-92.54722, 38.09833]}, "type": "Feature", "properties": {"codeIataAirport": "AIZ", "airportId": 190}}, {"geometry": {"type": "Point", "coordinates": [8.794013, 41.91987]}, "type": "Feature", "properties": {"codeIataAirport": "AJA", "airportId": 191}}, {"geometry": {"type": "Point", "coordinates": [40.101486, 29.788668]}, "type": "Feature", "properties": {"codeIataAirport": "AJF", "airportId": 192}}, {"geometry": {"type": "Point", "coordinates": [43.025, 39.65]}, "type": "Feature", "properties": {"codeIataAirport": "AJI", "airportId": 193}}, {"geometry": {"type": "Point", "coordinates": [-14.374444, 19.730556]}, "type": "Feature", "properties": {"codeIataAirport": "AJJ", "airportId": 194}}, {"geometry": {"type": "Point", "coordinates": [49.833332, 34.13333]}, "type": "Feature", "properties": {"codeIataAirport": "AJK", "airportId": 195}}, {"geometry": {"type": "Point", "coordinates": [92.62482, 23.838985]}, "type": "Feature", "properties": {"codeIataAirport": "AJL", "airportId": 196}}, {"geometry": {"type": "Point", "coordinates": [44.42972, -12.126389]}, "type": "Feature", "properties": {"codeIataAirport": "AJN", "airportId": 197}}, {"geometry": {"type": "Point", "coordinates": [19.285557, 65.59139]}, "type": "Feature", "properties": {"codeIataAirport": "AJR", "airportId": 198}}, {"geometry": {"type": "Point", "coordinates": [-113.666664, 26.833332]}, "type": "Feature", "properties": {"codeIataAirport": "AJS", "airportId": 199}}, {"geometry": {"type": "Point", "coordinates": [-37.072792, -10.987206]}, "type": "Feature", "properties": {"codeIataAirport": "AJU", "airportId": 200}}, {"geometry": {"type": "Point", "coordinates": [7.993056, 16.964167]}, "type": "Feature", "properties": {"codeIataAirport": "AJY", "airportId": 201}}, {"geometry": {"type": "Point", "coordinates": [108.936, 32.7091]}, "type": "Feature", "properties": {"codeIataAirport": "AKA", "airportId": 202}}, {"geometry": {"type": "Point", "coordinates": [-174.20084, 52.21722]}, "type": "Feature", "properties": {"codeIataAirport": "AKB", "airportId": 203}}, {"geometry": {"type": "Point", "coordinates": [-81.46778, 41.04]}, "type": "Feature", "properties": {"codeIataAirport": "AKC", "airportId": 204}}, {"geometry": {"type": "Point", "coordinates": [77.083336, 20.666668]}, "type": "Feature", "properties": {"codeIataAirport": "AKD", "airportId": 205}}, {"geometry": {"type": "Point", "coordinates": [13.916667, -1.172222]}, "type": "Feature", "properties": {"codeIataAirport": "AKE", "airportId": 206}}, {"geometry": {"type": "Point", "coordinates": [23.333332, 24.2]}, "type": "Feature", "properties": {"codeIataAirport": "AKF", "airportId": 207}}, {"geometry": {"type": "Point", "coordinates": [142.01666, -3.633333]}, "type": "Feature", "properties": {"codeIataAirport": "AKG", "airportId": 208}}, {"geometry": {"type": "Point", "coordinates": [47.580555, 24.063334]}, "type": "Feature", "properties": {"codeIataAirport": "AKH", "airportId": 209}}, {"geometry": {"type": "Point", "coordinates": [-161.22333, 60.905556]}, "type": "Feature", "properties": {"codeIataAirport": "AKI", "airportId": 210}}, {"geometry": {"type": "Point", "coordinates": [142.45454, 43.67109]}, "type": "Feature", "properties": {"codeIataAirport": "AKJ", "airportId": 211}}, {"geometry": {"type": "Point", "coordinates": [-154.16667, 56.944443]}, "type": "Feature", "properties": {"codeIataAirport": "AKK", "airportId": 212}}, {"geometry": {"type": "Point", "coordinates": [174.78352, -37.004787]}, "type": "Feature", "properties": {"codeIataAirport": "AKL", "airportId": 213}}, {"geometry": {"type": "Point", "coordinates": [19.816668, 10.883333]}, "type": "Feature", "properties": {"codeIataAirport": "AKM", "airportId": 214}}, {"geometry": {"type": "Point", "coordinates": [-156.66902, 58.68274]}, "type": "Feature", "properties": {"codeIataAirport": "AKN", "airportId": 215}}, {"geometry": {"type": "Point", "coordinates": [-103.21667, 40.166668]}, "type": "Feature", "properties": {"codeIataAirport": "AKO", "airportId": 216}}, {"geometry": {"type": "Point", "coordinates": [-151.74, 68.1375]}, "type": "Feature", "properties": {"codeIataAirport": "AKP", "airportId": 217}}, {"geometry": {"type": "Point", "coordinates": [105.23333, -4.616667]}, "type": "Feature", "properties": {"codeIataAirport": "AKQ", "airportId": 218}}, {"geometry": {"type": "Point", "coordinates": [5.083333, 7.25]}, "type": "Feature", "properties": {"codeIataAirport": "AKR", "airportId": 219}}, {"geometry": {"type": "Point", "coordinates": [160.68083, -8.697778]}, "type": "Feature", "properties": {"codeIataAirport": "AKS", "airportId": 220}}, {"geometry": {"type": "Point", "coordinates": [32.983334, 34.583332]}, "type": "Feature", "properties": {"codeIataAirport": "AKT", "airportId": 221}}, {"geometry": {"type": "Point", "coordinates": [80.29262, 41.259983]}, "type": "Feature", "properties": {"codeIataAirport": "AKU", "airportId": 222}}, {"geometry": {"type": "Point", "coordinates": [-78.583336, 60.733334]}, "type": "Feature", "properties": {"codeIataAirport": "AKV", "airportId": 223}}, {"geometry": {"type": "Point", "coordinates": [49.683334, 30.75]}, "type": "Feature", "properties": {"codeIataAirport": "AKW", "airportId": 224}}, {"geometry": {"type": "Point", "coordinates": [57.211403, 50.249336]}, "type": "Feature", "properties": {"codeIataAirport": "AKX", "airportId": 225}}, {"geometry": {"type": "Point", "coordinates": [92.88028, 20.130278]}, "type": "Feature", "properties": {"codeIataAirport": "AKY", "airportId": 226}}, {"geometry": {"type": "Point", "coordinates": [77.01145, 43.346653]}, "type": "Feature", "properties": {"codeIataAirport": "ALA", "airportId": 227}}, {"geometry": {"type": "Point", "coordinates": [-73.809555, 42.745277]}, "type": "Feature", "properties": {"codeIataAirport": "ALB", "airportId": 228}}, {"geometry": {"type": "Point", "coordinates": [-0.557381, 38.287098]}, "type": "Feature", "properties": {"codeIataAirport": "ALC", "airportId": 229}}, {"geometry": {"type": "Point", "coordinates": [-69.333336, -11.683333]}, "type": "Feature", "properties": {"codeIataAirport": "ALD", "airportId": 230}}, {"geometry": {"type": "Point", "coordinates": [-103.75, 30.416668]}, "type": "Feature", "properties": {"codeIataAirport": "ALE", "airportId": 231}}, {"geometry": {"type": "Point", "coordinates": [23.355808, 69.977165]}, "type": "Feature", "properties": {"codeIataAirport": "ALF", "airportId": 232}}, {"geometry": {"type": "Point", "coordinates": [3.21167, 36.70058]}, "type": "Feature", "properties": {"codeIataAirport": "ALG", "airportId": 233}}, {"geometry": {"type": "Point", "coordinates": [117.804, -34.944996]}, "type": "Feature", "properties": {"codeIataAirport": "ALH", "airportId": 234}}, {"geometry": {"type": "Point", "coordinates": [-98.066666, 27.75]}, "type": "Feature", "properties": {"codeIataAirport": "ALI", "airportId": 235}}, {"geometry": {"type": "Point", "coordinates": [16.536388, -28.567223]}, "type": "Feature", "properties": {"codeIataAirport": "ALJ", "airportId": 236}}, {"geometry": {"type": "Point", "coordinates": [39.11667, 7.966667]}, "type": "Feature", "properties": {"codeIataAirport": "ALK", "airportId": 237}}, {"geometry": {"type": "Point", "coordinates": [8.216667, 44.05]}, "type": "Feature", "properties": {"codeIataAirport": "ALL", "airportId": 238}}, {"geometry": {"type": "Point", "coordinates": [-105.985275, 32.845833]}, "type": "Feature", "properties": {"codeIataAirport": "ALM", "airportId": 239}}, {"geometry": {"type": "Point", "coordinates": [-90.04833, 38.891666]}, "type": "Feature", "properties": {"codeIataAirport": "ALN", "airportId": 240}}, {"geometry": {"type": "Point", "coordinates": [-92.39972, 42.55611]}, "type": "Feature", "properties": {"codeIataAirport": "ALO", "airportId": 241}}, {"geometry": {"type": "Point", "coordinates": [37.227074, 36.185352]}, "type": "Feature", "properties": {"codeIataAirport": "ALP", "airportId": 242}}, {"geometry": {"type": "Point", "coordinates": [-55.763332, -29.799723]}, "type": "Feature", "properties": {"codeIataAirport": "ALQ", "airportId": 243}}, {"geometry": {"type": "Point", "coordinates": [169.36945, -45.21389]}, "type": "Feature", "properties": {"codeIataAirport": "ALR", "airportId": 244}}, {"geometry": {"type": "Point", "coordinates": [-105.86667, 37.43667]}, "type": "Feature", "properties": {"codeIataAirport": "ALS", "airportId": 245}}, {"geometry": {"type": "Point", "coordinates": [-54.766666, -1.933333]}, "type": "Feature", "properties": {"codeIataAirport": "ALT", "airportId": 246}}, {"geometry": {"type": "Point", "coordinates": [50.8, 11.966667]}, "type": "Feature", "properties": {"codeIataAirport": "ALU", "airportId": 247}}, {"geometry": {"type": "Point", "coordinates": [-118.291115, 46.094723]}, "type": "Feature", "properties": {"codeIataAirport": "ALW", "airportId": 248}}, {"geometry": {"type": "Point", "coordinates": [-85.95, 32.933334]}, "type": "Feature", "properties": {"codeIataAirport": "ALX", "airportId": 249}}, {"geometry": {"type": "Point", "coordinates": [29.953058, 31.192545]}, "type": "Feature", "properties": {"codeIataAirport": "ALY", "airportId": 250}}, {"geometry": {"type": "Point", "coordinates": [-154.24583, 56.895832]}, "type": "Feature", "properties": {"codeIataAirport": "ALZ", "airportId": 251}}, {"geometry": {"type": "Point", "coordinates": [-101.70513, 35.218273]}, "type": "Feature", "properties": {"codeIataAirport": "AMA", "airportId": 252}}, {"geometry": {"type": "Point", "coordinates": [48.983334, -13.183333]}, "type": "Feature", "properties": {"codeIataAirport": "AMB", "airportId": 253}}, {"geometry": {"type": "Point", "coordinates": [20.283333, 11.033333]}, "type": "Feature", "properties": {"codeIataAirport": "AMC", "airportId": 254}}, {"geometry": {"type": "Point", "coordinates": [72.62417, 23.06639]}, "type": "Feature", "properties": {"codeIataAirport": "AMD", "airportId": 255}}, {"geometry": {"type": "Point", "coordinates": [37.583332, -15.833333]}, "type": "Feature", "properties": {"codeIataAirport": "AME", "airportId": 256}}, {"geometry": {"type": "Point", "coordinates": [141.66667, -4.166667]}, "type": "Feature", "properties": {"codeIataAirport": "AMF", "airportId": 257}}, {"geometry": {"type": "Point", "coordinates": [143.7, -4.616667]}, "type": "Feature", "properties": {"codeIataAirport": "AMG", "airportId": 258}}, {"geometry": {"type": "Point", "coordinates": [37.576942, 6.036111]}, "type": "Feature", "properties": {"codeIataAirport": "AMH", "airportId": 259}}, {"geometry": {"type": "Point", "coordinates": [-40.683334, -16.183332]}, "type": "Feature", "properties": {"codeIataAirport": "AMJ", "airportId": 260}}, {"geometry": {"type": "Point", "coordinates": [-107.75, 37.15]}, "type": "Feature", "properties": {"codeIataAirport": "AMK", "airportId": 261}}, {"geometry": {"type": "Point", "coordinates": [35.98932, 31.722534]}, "type": "Feature", "properties": {"codeIataAirport": "AMM", "airportId": 262}}, {"geometry": {"type": "Point", "coordinates": [-84.65, 43.38333]}, "type": "Feature", "properties": {"codeIataAirport": "AMN", "airportId": 263}}, {"geometry": {"type": "Point", "coordinates": [15.316667, 14.116667]}, "type": "Feature", "properties": {"codeIataAirport": "AMO", "airportId": 264}}, {"geometry": {"type": "Point", "coordinates": [44.733334, -24.7]}, "type": "Feature", "properties": {"codeIataAirport": "AMP", "airportId": 265}}, {"geometry": {"type": "Point", "coordinates": [128.08888, -3.704996]}, "type": "Feature", "properties": {"codeIataAirport": "AMQ", "airportId": 266}}, {"geometry": {"type": "Point", "coordinates": [171.23334, 7.033333]}, "type": "Feature", "properties": {"codeIataAirport": "AMR", "airportId": 267}}, {"geometry": {"type": "Point", "coordinates": [4.763385, 52.30907]}, "type": "Feature", "properties": {"codeIataAirport": "AMS", "airportId": 268}}, {"geometry": {"type": "Point", "coordinates": [132.03334, -26.766666]}, "type": "Feature", "properties": {"codeIataAirport": "AMT", "airportId": 269}}, {"geometry": {"type": "Point", "coordinates": [141.15, -3.516667]}, "type": "Feature", "properties": {"codeIataAirport": "AMU", "airportId": 270}}, {"geometry": {"type": "Point", "coordinates": [61.55, 69.76667]}, "type": "Feature", "properties": {"codeIataAirport": "AMV", "airportId": 271}}, {"geometry": {"type": "Point", "coordinates": [-93.61833, 41.994167]}, "type": "Feature", "properties": {"codeIataAirport": "AMW", "airportId": 272}}, {"geometry": {"type": "Point", "coordinates": [135.24, -21.74]}, "type": "Feature", "properties": {"codeIataAirport": "AMX", "airportId": 273}}, {"geometry": {"type": "Point", "coordinates": [45.666668, -17.683332]}, "type": "Feature", "properties": {"codeIataAirport": "AMY", "airportId": 274}}, {"geometry": {"type": "Point", "coordinates": [174.96666, -37.033333]}, "type": "Feature", "properties": {"codeIataAirport": "AMZ", "airportId": 275}}, {"geometry": {"type": "Point", "coordinates": [-117.933334, 33.816666]}, "type": "Feature", "properties": {"codeIataAirport": "ANA", "airportId": 276}}, {"geometry": {"type": "Point", "coordinates": [-85.855835, 33.59028]}, "type": "Feature", "properties": {"codeIataAirport": "ANB", "airportId": 277}}, {"geometry": {"type": "Point", "coordinates": [-149.99638, 61.174442]}, "type": "Feature", "properties": {"codeIataAirport": "ANC", "airportId": 278}}, {"geometry": {"type": "Point", "coordinates": [-82.71, 34.49361]}, "type": "Feature", "properties": {"codeIataAirport": "AND", "airportId": 279}}, {"geometry": {"type": "Point", "coordinates": [-0.55, 47.466667]}, "type": "Feature", "properties": {"codeIataAirport": "ANE", "airportId": 280}}, {"geometry": {"type": "Point", "coordinates": [-70.44079, -23.449]}, "type": "Feature", "properties": {"codeIataAirport": "ANF", "airportId": 281}}, {"geometry": {"type": "Point", "coordinates": [0.216667, 45.733334]}, "type": "Feature", "properties": {"codeIataAirport": "ANG", "airportId": 282}}, {"geometry": {"type": "Point", "coordinates": [-159.53697, 61.574398]}, "type": "Feature", "properties": {"codeIataAirport": "ANI", "airportId": 283}}, {"geometry": {"type": "Point", "coordinates": [13.833333, -2.85]}, "type": "Feature", "properties": {"codeIataAirport": "ANJ", "airportId": 284}}, {"geometry": {"type": "Point", "coordinates": [32.833332, 39.983334]}, "type": "Feature", "properties": {"codeIataAirport": "ANK", "airportId": 285}}, {"geometry": {"type": "Point", "coordinates": [17.25, -11.25]}, "type": "Feature", "properties": {"codeIataAirport": "ANL", "airportId": 286}}, {"geometry": {"type": "Point", "coordinates": [50.316666, -15.0]}, "type": "Feature", "properties": {"codeIataAirport": "ANM", "airportId": 287}}, {"geometry": {"type": "Point", "coordinates": [-131.57056, 55.036945]}, "type": "Feature", "properties": {"codeIataAirport": "ANN", "airportId": 288}}, {"geometry": {"type": "Point", "coordinates": [39.936943, -16.177778]}, "type": "Feature", "properties": {"codeIataAirport": "ANO", "airportId": 289}}, {"geometry": {"type": "Point", "coordinates": [-76.5, 38.983334]}, "type": "Feature", "properties": {"codeIataAirport": "ANP", "airportId": 290}}, {"geometry": {"type": "Point", "coordinates": [-85.0, 41.63333]}, "type": "Feature", "properties": {"codeIataAirport": "ANQ", "airportId": 291}}, {"geometry": {"type": "Point", "coordinates": [4.450672, 51.18916]}, "type": "Feature", "properties": {"codeIataAirport": "ANR", "airportId": 292}}, {"geometry": {"type": "Point", "coordinates": [-73.355835, -13.716667]}, "type": "Feature", "properties": {"codeIataAirport": "ANS", "airportId": 293}}, {"geometry": {"type": "Point", "coordinates": [10.283333, 47.15]}, "type": "Feature", "properties": {"codeIataAirport": "ANT", "airportId": 294}}, {"geometry": {"type": "Point", "coordinates": [-61.76389, 17.108334]}, "type": "Feature", "properties": {"codeIataAirport": "ANU", "airportId": 295}}, {"geometry": {"type": "Point", "coordinates": [-160.18889, 62.647778]}, "type": "Feature", "properties": {"codeIataAirport": "ANV", "airportId": 296}}, {"geometry": {"type": "Point", "coordinates": [-99.86667, 42.55]}, "type": "Feature", "properties": {"codeIataAirport": "ANW", "airportId": 297}}, {"geometry": {"type": "Point", "coordinates": [16.133326, 69.30492]}, "type": "Feature", "properties": {"codeIataAirport": "ANX", "airportId": 298}}, {"geometry": {"type": "Point", "coordinates": [-98.03333, 37.15]}, "type": "Feature", "properties": {"codeIataAirport": "ANY", "airportId": 299}}, {"geometry": {"type": "Point", "coordinates": [132.16667, -25.083332]}, "type": "Feature", "properties": {"codeIataAirport": "ANZ", "airportId": 300}}, {"geometry": {"type": "Point", "coordinates": [144.65, -4.916667]}, "type": "Feature", "properties": {"codeIataAirport": "AOB", "airportId": 301}}, {"geometry": {"type": "Point", "coordinates": [12.45, 50.983334]}, "type": "Feature", "properties": {"codeIataAirport": "AOC", "airportId": 302}}, {"geometry": {"type": "Point", "coordinates": [19.288889, 11.474722]}, "type": "Feature", "properties": {"codeIataAirport": "AOD", "airportId": 303}}, {"geometry": {"type": "Point", "coordinates": [30.519444, 39.81]}, "type": "Feature", "properties": {"codeIataAirport": "AOE", "airportId": 304}}, {"geometry": {"type": "Point", "coordinates": [123.03333, 41.166668]}, "type": "Feature", "properties": {"codeIataAirport": "AOG", "airportId": 305}}, {"geometry": {"type": "Point", "coordinates": [-84.1, 40.766666]}, "type": "Feature", "properties": {"codeIataAirport": "AOH", "airportId": 306}}, {"geometry": {"type": "Point", "coordinates": [13.355723, 43.60691]}, "type": "Feature", "properties": {"codeIataAirport": "AOI", "airportId": 307}}, {"geometry": {"type": "Point", "coordinates": [140.68922, 40.738758]}, "type": "Feature", "properties": {"codeIataAirport": "AOJ", "airportId": 308}}, {"geometry": {"type": "Point", "coordinates": [27.146729, 35.420685]}, "type": "Feature", "properties": {"codeIataAirport": "AOK", "airportId": 309}}, {"geometry": {"type": "Point", "coordinates": [-57.15, -29.683332]}, "type": "Feature", "properties": {"codeIataAirport": "AOL", "airportId": 310}}, {"geometry": {"type": "Point", "coordinates": [140.68922, 40.738758]}, "type": "Feature", "properties": {"codeIataAirport": "AOM", "airportId": 311}}, {"geometry": {"type": "Point", "coordinates": [146.0, -6.333333]}, "type": "Feature", "properties": {"codeIataAirport": "AON", "airportId": 312}}, {"geometry": {"type": "Point", "coordinates": [-78.32, 40.297222]}, "type": "Feature", "properties": {"codeIataAirport": "AOO", "airportId": 313}}, {"geometry": {"type": "Point", "coordinates": [-76.40236, -2.90464]}, "type": "Feature", "properties": {"codeIataAirport": "AOP", "airportId": 314}}, {"geometry": {"type": "Point", "coordinates": [100.405266, 6.201171]}, "type": "Feature", "properties": {"codeIataAirport": "AOR", "airportId": 315}}, {"geometry": {"type": "Point", "coordinates": [-153.83333, 57.466667]}, "type": "Feature", "properties": {"codeIataAirport": "AOS", "airportId": 316}}, {"geometry": {"type": "Point", "coordinates": [7.3625, 45.73861]}, "type": "Feature", "properties": {"codeIataAirport": "AOT", "airportId": 317}}, {"geometry": {"type": "Point", "coordinates": [106.833336, 14.8]}, "type": "Feature", "properties": {"codeIataAirport": "AOU", "airportId": 318}}, {"geometry": {"type": "Point", "coordinates": [-104.98333, 39.733334]}, "type": "Feature", "properties": {"codeIataAirport": "APA", "airportId": 319}}, {"geometry": {"type": "Point", "coordinates": [-68.51667, -14.716667]}, "type": "Feature", "properties": {"codeIataAirport": "APB", "airportId": 320}}, {"geometry": {"type": "Point", "coordinates": [-122.28, 38.212223]}, "type": "Feature", "properties": {"codeIataAirport": "APC", "airportId": 321}}, {"geometry": {"type": "Point", "coordinates": [-69.083336, -11.933333]}, "type": "Feature", "properties": {"codeIataAirport": "APE", "airportId": 322}}, {"geometry": {"type": "Point", "coordinates": [-81.775276, 26.152779]}, "type": "Feature", "properties": {"codeIataAirport": "APF", "airportId": 323}}, {"geometry": {"type": "Point", "coordinates": [-76.166664, 39.5]}, "type": "Feature", "properties": {"codeIataAirport": "APG", "airportId": 324}}, {"geometry": {"type": "Point", "coordinates": [-77.35, 38.05]}, "type": "Feature", "properties": {"codeIataAirport": "APH", "airportId": 325}}, {"geometry": {"type": "Point", "coordinates": [-73.05194, 4.068889]}, "type": "Feature", "properties": {"codeIataAirport": "API", "airportId": 326}}, {"geometry": {"type": "Point", "coordinates": [-146.08333, -15.416667]}, "type": "Feature", "properties": {"codeIataAirport": "APK", "airportId": 327}}, {"geometry": {"type": "Point", "coordinates": [39.287224, -15.101667]}, "type": "Feature", "properties": {"codeIataAirport": "APL", "airportId": 328}}, {"geometry": {"type": "Point", "coordinates": [-83.55583, 45.08167]}, "type": "Feature", "properties": {"codeIataAirport": "APN", "airportId": 329}}, {"geometry": {"type": "Point", "coordinates": [-76.71766, 7.817678]}, "type": "Feature", "properties": {"codeIataAirport": "APO", "airportId": 330}}, {"geometry": {"type": "Point", "coordinates": [148.13333, -8.983333]}, "type": "Feature", "properties": {"codeIataAirport": "APP", "airportId": 331}}, {"geometry": {"type": "Point", "coordinates": [-36.65, -9.75]}, "type": "Feature", "properties": {"codeIataAirport": "APQ", "airportId": 332}}, {"geometry": {"type": "Point", "coordinates": [145.0, -8.5]}, "type": "Feature", "properties": {"codeIataAirport": "APR", "airportId": 333}}, {"geometry": {"type": "Point", "coordinates": [-48.966667, -16.333332]}, "type": "Feature", "properties": {"codeIataAirport": "APS", "airportId": 334}}, {"geometry": {"type": "Point", "coordinates": [-85.5, 35.066666]}, "type": "Feature", "properties": {"codeIataAirport": "APT", "airportId": 335}}, {"geometry": {"type": "Point", "coordinates": [-51.483334, -23.55]}, "type": "Feature", "properties": {"codeIataAirport": "APU", "airportId": 336}}, {"geometry": {"type": "Point", "coordinates": [-117.212776, 34.52639]}, "type": "Feature", "properties": {"codeIataAirport": "APV", "airportId": 337}}, {"geometry": {"type": "Point", "coordinates": [-171.99724, -13.832793]}, "type": "Feature", "properties": {"codeIataAirport": "APW", "airportId": 338}}, {"geometry": {"type": "Point", "coordinates": [-51.466667, -23.483334]}, "type": "Feature", "properties": {"codeIataAirport": "APX", "airportId": 339}}, {"geometry": {"type": "Point", "coordinates": [-45.933334, -9.133333]}, "type": "Feature", "properties": {"codeIataAirport": "APY", "airportId": 340}}, {"geometry": {"type": "Point", "coordinates": [-70.083336, -38.916668]}, "type": "Feature", "properties": {"codeIataAirport": "APZ", "airportId": 341}}, {"geometry": {"type": "Point", "coordinates": [-48.13333, -21.816668]}, "type": "Feature", "properties": {"codeIataAirport": "AQA", "airportId": 342}}, {"geometry": {"type": "Point", "coordinates": [-91.15, 15.01]}, "type": "Feature", "properties": {"codeIataAirport": "AQB", "airportId": 343}}, {"geometry": {"type": "Point", "coordinates": [117.0509, 30.5825]}, "type": "Feature", "properties": {"codeIataAirport": "AQG", "airportId": 344}}, {"geometry": {"type": "Point", "coordinates": [46.121315, 28.334408]}, "type": "Feature", "properties": {"codeIataAirport": "AQI", "airportId": 345}}, {"geometry": {"type": "Point", "coordinates": [35.02151, 29.610073]}, "type": "Feature", "properties": {"codeIataAirport": "AQJ", "airportId": 346}}, {"geometry": {"type": "Point", "coordinates": [-63.066666, -9.933333]}, "type": "Feature", "properties": {"codeIataAirport": "AQM", "airportId": 347}}, {"geometry": {"type": "Point", "coordinates": [-71.56799, -16.344812]}, "type": "Feature", "properties": {"codeIataAirport": "AQP", "airportId": 348}}, {"geometry": {"type": "Point", "coordinates": [-149.11667, 60.966667]}, "type": "Feature", "properties": {"codeIataAirport": "AQY", "airportId": 349}}, {"geometry": {"type": "Point", "coordinates": [-91.88389, 30.037779]}, "type": "Feature", "properties": {"codeIataAirport": "ARA", "airportId": 350}}, {"geometry": {"type": "Point", "coordinates": [-83.75, 42.3]}, "type": "Feature", "properties": {"codeIataAirport": "ARB", "airportId": 351}}, {"geometry": {"type": "Point", "coordinates": [-145.52444, 68.1375]}, "type": "Feature", "properties": {"codeIataAirport": "ARC", "airportId": 352}}, {"geometry": {"type": "Point", "coordinates": [124.53333, -8.683333]}, "type": "Feature", "properties": {"codeIataAirport": "ARD", "airportId": 353}}, {"geometry": {"type": "Point", "coordinates": [-66.675835, 18.45]}, "type": "Feature", "properties": {"codeIataAirport": "ARE", "airportId": 354}}, {"geometry": {"type": "Point", "coordinates": [-70.13333, 0.533333]}, "type": "Feature", "properties": {"codeIataAirport": "ARF", "airportId": 355}}, {"geometry": {"type": "Point", "coordinates": [-90.95, 36.066666]}, "type": "Feature", "properties": {"codeIataAirport": "ARG", "airportId": 356}}, {"geometry": {"type": "Point", "coordinates": [40.711903, 64.594795]}, "type": "Feature", "properties": {"codeIataAirport": "ARH", "airportId": 357}}, {"geometry": {"type": "Point", "coordinates": [-70.335556, -18.349766]}, "type": "Feature", "properties": {"codeIataAirport": "ARI", "airportId": 358}}, {"geometry": {"type": "Point", "coordinates": [140.78334, -2.933333]}, "type": "Feature", "properties": {"codeIataAirport": "ARJ", "airportId": 359}}, {"geometry": {"type": "Point", "coordinates": [36.683334, -3.366667]}, "type": "Feature", "properties": {"codeIataAirport": "ARK", "airportId": 360}}, {"geometry": {"type": "Point", "coordinates": [1.483333, 11.6]}, "type": "Feature", "properties": {"codeIataAirport": "ARL", "airportId": 361}}, {"geometry": {"type": "Point", "coordinates": [151.61493, -30.532297]}, "type": "Feature", "properties": {"codeIataAirport": "ARM", "airportId": 362}}, {"geometry": {"type": "Point", "coordinates": [17.930365, 59.64982]}, "type": "Feature", "properties": {"codeIataAirport": "ARN", "airportId": 363}}, {"geometry": {"type": "Point", "coordinates": [-76.433334, 8.85]}, "type": "Feature", "properties": {"codeIataAirport": "ARO", "airportId": 364}}, {"geometry": {"type": "Point", "coordinates": [149.5, -9.8]}, "type": "Feature", "properties": {"codeIataAirport": "ARP", "airportId": 365}}, {"geometry": {"type": "Point", "coordinates": [-71.43166, 7.033056]}, "type": "Feature", "properties": {"codeIataAirport": "ARQ", "airportId": 366}}, {"geometry": {"type": "Point", "coordinates": [-70.833336, -45.033333]}, "type": "Feature", "properties": {"codeIataAirport": "ARR", "airportId": 367}}, {"geometry": {"type": "Point", "coordinates": [-52.233334, -15.9]}, "type": "Feature", "properties": {"codeIataAirport": "ARS", "airportId": 368}}, {"geometry": {"type": "Point", "coordinates": [-76.021385, 43.990833]}, "type": "Feature", "properties": {"codeIataAirport": "ART", "airportId": 369}}, {"geometry": {"type": "Point", "coordinates": [-50.42611, -21.143612]}, "type": "Feature", "properties": {"codeIataAirport": "ARU", "airportId": 370}}, {"geometry": {"type": "Point", "coordinates": [-89.73222, 45.924168]}, "type": "Feature", "properties": {"codeIataAirport": "ARV", "airportId": 371}}, {"geometry": {"type": "Point", "coordinates": [21.266666, 46.183334]}, "type": "Feature", "properties": {"codeIataAirport": "ARW", "airportId": 372}}, {"geometry": {"type": "Point", "coordinates": [143.0, -37.316666]}, "type": "Feature", "properties": {"codeIataAirport": "ARY", "airportId": 373}}, {"geometry": {"type": "Point", "coordinates": [13.5, -7.5]}, "type": "Feature", "properties": {"codeIataAirport": "ARZ", "airportId": 374}}, {"geometry": {"type": "Point", "coordinates": [42.638332, 13.07]}, "type": "Feature", "properties": {"codeIataAirport": "ASA", "airportId": 375}}, {"geometry": {"type": "Point", "coordinates": [58.366978, 37.984184]}, "type": "Feature", "properties": {"codeIataAirport": "ASB", "airportId": 376}}, {"geometry": {"type": "Point", "coordinates": [-63.15, -15.916667]}, "type": "Feature", "properties": {"codeIataAirport": "ASC", "airportId": 377}}, {"geometry": {"type": "Point", "coordinates": [-77.79611, 24.697779]}, "type": "Feature", "properties": {"codeIataAirport": "ASD", "airportId": 378}}, {"geometry": {"type": "Point", "coordinates": [-106.864685, 39.219685]}, "type": "Feature", "properties": {"codeIataAirport": "ASE", "airportId": 379}}, {"geometry": {"type": "Point", "coordinates": [47.999977, 46.2877]}, "type": "Feature", "properties": {"codeIataAirport": "ASF", "airportId": 380}}, {"geometry": {"type": "Point", "coordinates": [171.78334, -43.9]}, "type": "Feature", "properties": {"codeIataAirport": "ASG", "airportId": 381}}, {"geometry": {"type": "Point", "coordinates": [-71.509445, 42.77889]}, "type": "Feature", "properties": {"codeIataAirport": "ASH", "airportId": 382}}, {"geometry": {"type": "Point", "coordinates": [-14.4, -7.966667]}, "type": "Feature", "properties": {"codeIataAirport": "ASI", "airportId": 383}}, {"geometry": {"type": "Point", "coordinates": [129.70793, 28.431522]}, "type": "Feature", "properties": {"codeIataAirport": "ASJ", "airportId": 384}}, {"geometry": {"type": "Point", "coordinates": [-5.283333, 6.816667]}, "type": "Feature", "properties": {"codeIataAirport": "ASK", "airportId": 385}}, {"geometry": {"type": "Point", "coordinates": [-94.38333, 32.55]}, "type": "Feature", "properties": {"codeIataAirport": "ASL", "airportId": 386}}, {"geometry": {"type": "Point", "coordinates": [38.91028, 15.291111]}, "type": "Feature", "properties": {"codeIataAirport": "ASM", "airportId": 387}}, {"geometry": {"type": "Point", "coordinates": [-86.1, 33.433334]}, "type": "Feature", "properties": {"codeIataAirport": "ASN", "airportId": 388}}, {"geometry": {"type": "Point", "coordinates": [34.536667, 10.047222]}, "type": "Feature", "properties": {"codeIataAirport": "ASO", "airportId": 389}}, {"geometry": {"type": "Point", "coordinates": [133.90338, -23.80139]}, "type": "Feature", "properties": {"codeIataAirport": "ASP", "airportId": 390}}, {"geometry": {"type": "Point", "coordinates": [-117.166664, 39.466667]}, "type": "Feature", "properties": {"codeIataAirport": "ASQ", "airportId": 391}}, {"geometry": {"type": "Point", "coordinates": [35.490707, 38.7742]}, "type": "Feature", "properties": {"codeIataAirport": "ASR", "airportId": 392}}, {"geometry": {"type": "Point", "coordinates": [-123.88, 46.15972]}, "type": "Feature", "properties": {"codeIataAirport": "AST", "airportId": 393}}, {"geometry": {"type": "Point", "coordinates": [-57.513794, -25.241795]}, "type": "Feature", "properties": {"codeIataAirport": "ASU", "airportId": 394}}, {"geometry": {"type": "Point", "coordinates": [37.25, -2.633333]}, "type": "Feature", "properties": {"codeIataAirport": "ASV", "airportId": 395}}, {"geometry": {"type": "Point", "coordinates": [32.824818, 23.968021]}, "type": "Feature", "properties": {"codeIataAirport": "ASW", "airportId": 396}}, {"geometry": {"type": "Point", "coordinates": [-90.916664, 46.55]}, "type": "Feature", "properties": {"codeIataAirport": "ASX", "airportId": 397}}, {"geometry": {"type": "Point", "coordinates": [-99.36667, 46.033333]}, "type": "Feature", "properties": {"codeIataAirport": "ASY", "airportId": 398}}, {"geometry": {"type": "Point", "coordinates": [150.36667, -5.866667]}, "type": "Feature", "properties": {"codeIataAirport": "ASZ", "airportId": 399}}, {"geometry": {"type": "Point", "coordinates": [-77.6, -9.347222]}, "type": "Feature", "properties": {"codeIataAirport": "ATA", "airportId": 400}}, {"geometry": {"type": "Point", "coordinates": [34.016666, 17.716667]}, "type": "Feature", "properties": {"codeIataAirport": "ATB", "airportId": 401}}, {"geometry": {"type": "Point", "coordinates": [-75.67139, 24.62861]}, "type": "Feature", "properties": {"codeIataAirport": "ATC", "airportId": 402}}, {"geometry": {"type": "Point", "coordinates": [161.03334, -8.866667]}, "type": "Feature", "properties": {"codeIataAirport": "ATD", "airportId": 403}}, {"geometry": {"type": "Point", "coordinates": [-95.61667, 34.233334]}, "type": "Feature", "properties": {"codeIataAirport": "ATE", "airportId": 404}}, {"geometry": {"type": "Point", "coordinates": [-78.7, -1.083333]}, "type": "Feature", "properties": {"codeIataAirport": "ATF", "airportId": 405}}, {"geometry": {"type": "Point", "coordinates": [72.25, 33.9]}, "type": "Feature", "properties": {"codeIataAirport": "ATG", "airportId": 406}}, {"geometry": {"type": "Point", "coordinates": [23.946486, 37.93635]}, "type": "Feature", "properties": {"codeIataAirport": "ATH", "airportId": 407}}, {"geometry": {"type": "Point", "coordinates": [-56.50833, -30.4]}, "type": "Feature", "properties": {"codeIataAirport": "ATI", "airportId": 408}}, {"geometry": {"type": "Point", "coordinates": [47.016666, -19.85]}, "type": "Feature", "properties": {"codeIataAirport": "ATJ", "airportId": 409}}, {"geometry": {"type": "Point", "coordinates": [-157.33333, 70.5]}, "type": "Feature", "properties": {"codeIataAirport": "ATK", "airportId": 410}}, {"geometry": {"type": "Point", "coordinates": [-84.44403, 33.640068]}, "type": "Feature", "properties": {"codeIataAirport": "ATL", "airportId": 411}}, {"geometry": {"type": "Point", "coordinates": [-52.216667, -3.2]}, "type": "Feature", "properties": {"codeIataAirport": "ATM", "airportId": 412}}, {"geometry": {"type": "Point", "coordinates": [152.46666, -3.666667]}, "type": "Feature", "properties": {"codeIataAirport": "ATN", "airportId": 413}}, {"geometry": {"type": "Point", "coordinates": [-82.1, 39.333332]}, "type": "Feature", "properties": {"codeIataAirport": "ATO", "airportId": 414}}, {"geometry": {"type": "Point", "coordinates": [142.28334, -3.166667]}, "type": "Feature", "properties": {"codeIataAirport": "ATP", "airportId": 415}}, {"geometry": {"type": "Point", "coordinates": [74.8073, 31.706741]}, "type": "Feature", "properties": {"codeIataAirport": "ATQ", "airportId": 416}}, {"geometry": {"type": "Point", "coordinates": [-13.046389, 20.499443]}, "type": "Feature", "properties": {"codeIataAirport": "ATR", "airportId": 417}}, {"geometry": {"type": "Point", "coordinates": [-104.46694, 32.84833]}, "type": "Feature", "properties": {"codeIataAirport": "ATS", "airportId": 418}}, {"geometry": {"type": "Point", "coordinates": [-162.2675, 60.866943]}, "type": "Feature", "properties": {"codeIataAirport": "ATT", "airportId": 419}}, {"geometry": {"type": "Point", "coordinates": [18.3075, 13.242222]}, "type": "Feature", "properties": {"codeIataAirport": "ATV", "airportId": 420}}, {"geometry": {"type": "Point", "coordinates": [-88.50994, 44.26011]}, "type": "Feature", "properties": {"codeIataAirport": "ATW", "airportId": 421}}, {"geometry": {"type": "Point", "coordinates": [68.4, 51.88333]}, "type": "Feature", "properties": {"codeIataAirport": "ATX", "airportId": 422}}, {"geometry": {"type": "Point", "coordinates": [-97.15417, 44.90889]}, "type": "Feature", "properties": {"codeIataAirport": "ATY", "airportId": 423}}, {"geometry": {"type": "Point", "coordinates": [31.0, 27.033333]}, "type": "Feature", "properties": {"codeIataAirport": "ATZ", "airportId": 424}}, {"geometry": {"type": "Point", "coordinates": [-70.013885, 12.502222]}, "type": "Feature", "properties": {"codeIataAirport": "AUA", "airportId": 425}}, {"geometry": {"type": "Point", "coordinates": [-63.35, -5.766667]}, "type": "Feature", "properties": {"codeIataAirport": "AUB", "airportId": 426}}, {"geometry": {"type": "Point", "coordinates": [-70.7425, 7.071667]}, "type": "Feature", "properties": {"codeIataAirport": "AUC", "airportId": 427}}, {"geometry": {"type": "Point", "coordinates": [139.88167, -18.506945]}, "type": "Feature", "properties": {"codeIataAirport": "AUD", "airportId": 428}}, {"geometry": {"type": "Point", "coordinates": [33.183334, 28.9]}, "type": "Feature", "properties": {"codeIataAirport": "AUE", "airportId": 429}}, {"geometry": {"type": "Point", "coordinates": [3.5, 47.85]}, "type": "Feature", "properties": {"codeIataAirport": "AUF", "airportId": 430}}, {"geometry": {"type": "Point", "coordinates": [-69.79667, 44.318054]}, "type": "Feature", "properties": {"codeIataAirport": "AUG", "airportId": 431}}, {"geometry": {"type": "Point", "coordinates": [54.645973, 24.426912]}, "type": "Feature", "properties": {"codeIataAirport": "AUH", "airportId": 432}}, {"geometry": {"type": "Point", "coordinates": [143.075, -1.458333]}, "type": "Feature", "properties": {"codeIataAirport": "AUI", "airportId": 433}}, {"geometry": {"type": "Point", "coordinates": [142.85, -4.25]}, "type": "Feature", "properties": {"codeIataAirport": "AUJ", "airportId": 434}}, {"geometry": {"type": "Point", "coordinates": [-164.61084, 62.689167]}, "type": "Feature", "properties": {"codeIataAirport": "AUK", "airportId": 435}}, {"geometry": {"type": "Point", "coordinates": [171.16667, 8.133333]}, "type": "Feature", "properties": {"codeIataAirport": "AUL", "airportId": 436}}, {"geometry": {"type": "Point", "coordinates": [-92.98333, 43.666668]}, "type": "Feature", "properties": {"codeIataAirport": "AUM", "airportId": 437}}, {"geometry": {"type": "Point", "coordinates": [-121.066666, 38.9]}, "type": "Feature", "properties": {"codeIataAirport": "AUN", "airportId": 438}}, {"geometry": {"type": "Point", "coordinates": [-85.5, 32.63333]}, "type": "Feature", "properties": {"codeIataAirport": "AUO", "airportId": 439}}, {"geometry": {"type": "Point", "coordinates": [149.58333, -9.983333]}, "type": "Feature", "properties": {"codeIataAirport": "AUP", "airportId": 440}}, {"geometry": {"type": "Point", "coordinates": [-139.00978, -9.769324]}, "type": "Feature", "properties": {"codeIataAirport": "AUQ", "airportId": 441}}, {"geometry": {"type": "Point", "coordinates": [2.418056, 44.8975]}, "type": "Feature", "properties": {"codeIataAirport": "AUR", "airportId": 442}}, {"geometry": {"type": "Point", "coordinates": [-97.66706, 30.202545]}, "type": "Feature", "properties": {"codeIataAirport": "AUS", "airportId": 443}}, {"geometry": {"type": "Point", "coordinates": [125.583336, -8.216667]}, "type": "Feature", "properties": {"codeIataAirport": "AUT", "airportId": 444}}, {"geometry": {"type": "Point", "coordinates": [142.25, -13.166667]}, "type": "Feature", "properties": {"codeIataAirport": "AUU", "airportId": 445}}, {"geometry": {"type": "Point", "coordinates": [148.43333, -5.716667]}, "type": "Feature", "properties": {"codeIataAirport": "AUV", "airportId": 446}}, {"geometry": {"type": "Point", "coordinates": [-89.623055, 44.923332]}, "type": "Feature", "properties": {"codeIataAirport": "AUW", "airportId": 447}}, {"geometry": {"type": "Point", "coordinates": [-48.2, -7.2]}, "type": "Feature", "properties": {"codeIataAirport": "AUX", "airportId": 448}}, {"geometry": {"type": "Point", "coordinates": [169.66667, -20.333332]}, "type": "Feature", "properties": {"codeIataAirport": "AUY", "airportId": 449}}, {"geometry": {"type": "Point", "coordinates": [-88.316666, 41.75]}, "type": "Feature", "properties": {"codeIataAirport": "AUZ", "airportId": 450}}, {"geometry": {"type": "Point", "coordinates": [105.87278, 26.257221]}, "type": "Feature", "properties": {"codeIataAirport": "AVA", "airportId": 451}}, {"geometry": {"type": "Point", "coordinates": [12.6, 46.033333]}, "type": "Feature", "properties": {"codeIataAirport": "AVB", "airportId": 452}}, {"geometry": {"type": "Point", "coordinates": [130.01666, -15.65]}, "type": "Feature", "properties": {"codeIataAirport": "AVG", "airportId": 453}}, {"geometry": {"type": "Point", "coordinates": [-78.79139, 22.025]}, "type": "Feature", "properties": {"codeIataAirport": "AVI", "airportId": 454}}, {"geometry": {"type": "Point", "coordinates": [102.78333, 46.266666]}, "type": "Feature", "properties": {"codeIataAirport": "AVK", "airportId": 455}}, {"geometry": {"type": "Point", "coordinates": [-82.537315, 35.43508]}, "type": "Feature", "properties": {"codeIataAirport": "AVL", "airportId": 456}}, {"geometry": {"type": "Point", "coordinates": [4.9, 43.9]}, "type": "Feature", "properties": {"codeIataAirport": "AVN", "airportId": 457}}, {"geometry": {"type": "Point", "coordinates": [-81.51667, 27.6]}, "type": "Feature", "properties": {"codeIataAirport": "AVO", "airportId": 458}}, {"geometry": {"type": "Point", "coordinates": [-75.730644, 41.336697]}, "type": "Feature", "properties": {"codeIataAirport": "AVP", "airportId": 459}}, {"geometry": {"type": "Point", "coordinates": [160.38333, -9.833333]}, "type": "Feature", "properties": {"codeIataAirport": "AVU", "airportId": 460}}, {"geometry": {"type": "Point", "coordinates": [144.47308, -38.02637]}, "type": "Feature", "properties": {"codeIataAirport": "AVV", "airportId": 461}}, {"geometry": {"type": "Point", "coordinates": [-111.21667, 32.416668]}, "type": "Feature", "properties": {"codeIataAirport": "AVW", "airportId": 462}}, {"geometry": {"type": "Point", "coordinates": [-118.31528, 33.341667]}, "type": "Feature", "properties": {"codeIataAirport": "AVX", "airportId": 463}}, {"geometry": {"type": "Point", "coordinates": [38.4875, 7.061111]}, "type": "Feature", "properties": {"codeIataAirport": "AWA", "airportId": 464}}, {"geometry": {"type": "Point", "coordinates": [142.75, -8.016667]}, "type": "Feature", "properties": {"codeIataAirport": "AWB", "airportId": 465}}, {"geometry": {"type": "Point", "coordinates": [169.5, -19.25]}, "type": "Feature", "properties": {"codeIataAirport": "AWD", "airportId": 466}}, {"geometry": {"type": "Point", "coordinates": [9.45, -0.75]}, "type": "Feature", "properties": {"codeIataAirport": "AWE", "airportId": 467}}, {"geometry": {"type": "Point", "coordinates": [166.63333, 19.283333]}, "type": "Feature", "properties": {"codeIataAirport": "AWK", "airportId": 468}}, {"geometry": {"type": "Point", "coordinates": [-90.183334, 35.13333]}, "type": "Feature", "properties": {"codeIataAirport": "AWM", "airportId": 469}}, {"geometry": {"type": "Point", "coordinates": [138.66667, -26.25]}, "type": "Feature", "properties": {"codeIataAirport": "AWN", "airportId": 470}}, {"geometry": {"type": "Point", "coordinates": [137.75, -20.5]}, "type": "Feature", "properties": {"codeIataAirport": "AWP", "airportId": 471}}, {"geometry": {"type": "Point", "coordinates": [48.74668, 31.34292]}, "type": "Feature", "properties": {"codeIataAirport": "AWZ", "airportId": 472}}, {"geometry": {"type": "Point", "coordinates": [-63.066666, 18.216667]}, "type": "Feature", "properties": {"codeIataAirport": "AXA", "airportId": 473}}, {"geometry": {"type": "Point", "coordinates": [-75.90139, 44.2525]}, "type": "Feature", "properties": {"codeIataAirport": "AXB", "airportId": 474}}, {"geometry": {"type": "Point", "coordinates": [145.2425, -22.958055]}, "type": "Feature", "properties": {"codeIataAirport": "AXC", "airportId": 475}}, {"geometry": {"type": "Point", "coordinates": [25.944893, 40.856785]}, "type": "Feature", "properties": {"codeIataAirport": "AXD", "airportId": 476}}, {"geometry": {"type": "Point", "coordinates": [-52.38333, -26.883333]}, "type": "Feature", "properties": {"codeIataAirport": "AXE", "airportId": 477}}, {"geometry": {"type": "Point", "coordinates": [-94.23333, 43.066666]}, "type": "Feature", "properties": {"codeIataAirport": "AXG", "airportId": 478}}, {"geometry": {"type": "Point", "coordinates": [46.3, 13.866667]}, "type": "Feature", "properties": {"codeIataAirport": "AXK", "airportId": 479}}, {"geometry": {"type": "Point", "coordinates": [136.66667, -19.083332]}, "type": "Feature", "properties": {"codeIataAirport": "AXL", "airportId": 480}}, {"geometry": {"type": "Point", "coordinates": [-75.76804, 4.452869]}, "type": "Feature", "properties": {"codeIataAirport": "AXM", "airportId": 481}}, {"geometry": {"type": "Point", "coordinates": [-95.394165, 45.86722]}, "type": "Feature", "properties": {"codeIataAirport": "AXN", "airportId": 482}}, {"geometry": {"type": "Point", "coordinates": [-73.96667, 22.45]}, "type": "Feature", "properties": {"codeIataAirport": "AXP", "airportId": 483}}, {"geometry": {"type": "Point", "coordinates": [-146.75, -15.25]}, "type": "Feature", "properties": {"codeIataAirport": "AXR", "airportId": 484}}, {"geometry": {"type": "Point", "coordinates": [-99.33806, 34.696667]}, "type": "Feature", "properties": {"codeIataAirport": "AXS", "airportId": 485}}, {"geometry": {"type": "Point", "coordinates": [140.22015, 39.61177]}, "type": "Feature", "properties": {"codeIataAirport": "AXT", "airportId": 486}}, {"geometry": {"type": "Point", "coordinates": [38.716667, 14.120833]}, "type": "Feature", "properties": {"codeIataAirport": "AXU", "airportId": 487}}, {"geometry": {"type": "Point", "coordinates": [-84.2, 40.566666]}, "type": "Feature", "properties": {"codeIataAirport": "AXV", "airportId": 488}}, {"geometry": {"type": "Point", "coordinates": [-105.28333, 36.416668]}, "type": "Feature", "properties": {"codeIataAirport": "AXX", "airportId": 489}}, {"geometry": {"type": "Point", "coordinates": [-75.15, 8.316667]}, "type": "Feature", "properties": {"codeIataAirport": "AYA", "airportId": 490}}, {"geometry": {"type": "Point", "coordinates": [-73.61667, 8.6]}, "type": "Feature", "properties": {"codeIataAirport": "AYC", "airportId": 491}}, {"geometry": {"type": "Point", "coordinates": [135.95, -19.3]}, "type": "Feature", "properties": {"codeIataAirport": "AYD", "airportId": 492}}, {"geometry": {"type": "Point", "coordinates": [-73.933334, 1.533333]}, "type": "Feature", "properties": {"codeIataAirport": "AYG", "airportId": 493}}, {"geometry": {"type": "Point", "coordinates": [-72.333336, -0.333333]}, "type": "Feature", "properties": {"codeIataAirport": "AYI", "airportId": 494}}, {"geometry": {"type": "Point", "coordinates": [66.96667, 50.316666]}, "type": "Feature", "properties": {"codeIataAirport": "AYK", "airportId": 495}}, {"geometry": {"type": "Point", "coordinates": [135.53334, -18.033333]}, "type": "Feature", "properties": {"codeIataAirport": "AYL", "airportId": 496}}, {"geometry": {"type": "Point", "coordinates": [114.35, 36.1]}, "type": "Feature", "properties": {"codeIataAirport": "AYN", "airportId": 497}}, {"geometry": {"type": "Point", "coordinates": [-56.85, -27.366667]}, "type": "Feature", "properties": {"codeIataAirport": "AYO", "airportId": 498}}, {"geometry": {"type": "Point", "coordinates": [-74.24722, -13.197222]}, "type": "Feature", "properties": {"codeIataAirport": "AYP", "airportId": 499}}, {"geometry": {"type": "Point", "coordinates": [130.97658, -25.190878]}, "type": "Feature", "properties": {"codeIataAirport": "AYQ", "airportId": 500}}, {"geometry": {"type": "Point", "coordinates": [147.32445, -19.596666]}, "type": "Feature", "properties": {"codeIataAirport": "AYR", "airportId": 501}}, {"geometry": {"type": "Point", "coordinates": [-82.39667, 31.248611]}, "type": "Feature", "properties": {"codeIataAirport": "AYS", "airportId": 502}}, {"geometry": {"type": "Point", "coordinates": [30.80135, 36.89928]}, "type": "Feature", "properties": {"codeIataAirport": "AYT", "airportId": 503}}, {"geometry": {"type": "Point", "coordinates": [145.9, -6.333333]}, "type": "Feature", "properties": {"codeIataAirport": "AYU", "airportId": 504}}, {"geometry": {"type": "Point", "coordinates": [132.5, -1.2]}, "type": "Feature", "properties": {"codeIataAirport": "AYW", "airportId": 505}}, {"geometry": {"type": "Point", "coordinates": [81.8311, 6.855]}, "type": "Feature", "properties": {"codeIataAirport": "AYY", "airportId": 506}}, {"geometry": {"type": "Point", "coordinates": [-111.655556, 33.307777]}, "type": "Feature", "properties": {"codeIataAirport": "AZA", "airportId": 507}}, {"geometry": {"type": "Point", "coordinates": [148.81667, -10.15]}, "type": "Feature", "properties": {"codeIataAirport": "AZB", "airportId": 508}}, {"geometry": {"type": "Point", "coordinates": [54.283264, 31.903603]}, "type": "Feature", "properties": {"codeIataAirport": "AZD", "airportId": 509}}, {"geometry": {"type": "Point", "coordinates": [-102.352776, 19.068056]}, "type": "Feature", "properties": {"codeIataAirport": "AZG", "airportId": 510}}, {"geometry": {"type": "Point", "coordinates": [54.451668, 24.419167]}, "type": "Feature", "properties": {"codeIataAirport": "AZI", "airportId": 511}}, {"geometry": {"type": "Point", "coordinates": [-58.85, -13.47]}, "type": "Feature", "properties": {"codeIataAirport": "AZL", "airportId": 512}}, {"geometry": {"type": "Point", "coordinates": [72.3, 40.733334]}, "type": "Feature", "properties": {"codeIataAirport": "AZN", "airportId": 513}}, {"geometry": {"type": "Point", "coordinates": [-85.55656, 42.239964]}, "type": "Feature", "properties": {"codeIataAirport": "AZO", "airportId": 514}}, {"geometry": {"type": "Point", "coordinates": [-99.1, 19.416668]}, "type": "Feature", "properties": {"codeIataAirport": "AZP", "airportId": 515}}, {"geometry": {"type": "Point", "coordinates": [-0.283333, 27.883333]}, "type": "Feature", "properties": {"codeIataAirport": "AZR", "airportId": 516}}, {"geometry": {"type": "Point", "coordinates": [-69.736946, 19.270555]}, "type": "Feature", "properties": {"codeIataAirport": "AZS", "airportId": 517}}, {"geometry": {"type": "Point", "coordinates": [-73.25, 6.866667]}, "type": "Feature", "properties": {"codeIataAirport": "AZT", "airportId": 518}}, {"geometry": {"type": "Point", "coordinates": [13.15, -7.883333]}, "type": "Feature", "properties": {"codeIataAirport": "AZZ", "airportId": 519}}, {"geometry": {"type": "Point", "coordinates": [151.03334, -5.316667]}, "type": "Feature", "properties": {"codeIataAirport": "BAA", "airportId": 520}}, {"geometry": {"type": "Point", "coordinates": [-121.583336, 39.15]}, "type": "Feature", "properties": {"codeIataAirport": "BAB", "airportId": 521}}, {"geometry": {"type": "Point", "coordinates": [-72.96667, 4.583333]}, "type": "Feature", "properties": {"codeIataAirport": "BAC", "airportId": 522}}, {"geometry": {"type": "Point", "coordinates": [-93.666664, 32.5]}, "type": "Feature", "properties": {"codeIataAirport": "BAD", "airportId": 523}}, {"geometry": {"type": "Point", "coordinates": [6.666667, 44.38333]}, "type": "Feature", "properties": {"codeIataAirport": "BAE", "airportId": 524}}, {"geometry": {"type": "Point", "coordinates": [-72.75, 42.13333]}, "type": "Feature", "properties": {"codeIataAirport": "BAF", "airportId": 525}}, {"geometry": {"type": "Point", "coordinates": [120.617775, 16.376667]}, "type": "Feature", "properties": {"codeIataAirport": "BAG", "airportId": 526}}, {"geometry": {"type": "Point", "coordinates": [50.62605, 26.26918]}, "type": "Feature", "properties": {"codeIataAirport": "BAH", "airportId": 527}}, {"geometry": {"type": "Point", "coordinates": [-83.333336, 9.166667]}, "type": "Feature", "properties": {"codeIataAirport": "BAI", "airportId": 528}}, {"geometry": {"type": "Point", "coordinates": [149.13333, -4.833333]}, "type": "Feature", "properties": {"codeIataAirport": "BAJ", "airportId": 529}}, {"geometry": {"type": "Point", "coordinates": [41.083332, 37.916668]}, "type": "Feature", "properties": {"codeIataAirport": "BAL", "airportId": 530}}, {"geometry": {"type": "Point", "coordinates": [-116.933334, 40.63333]}, "type": "Feature", "properties": {"codeIataAirport": "BAM", "airportId": 531}}, {"geometry": {"type": "Point", "coordinates": [20.428057, -4.313333]}, "type": "Feature", "properties": {"codeIataAirport": "BAN", "airportId": 532}}, {"geometry": {"type": "Point", "coordinates": [102.79278, 17.385]}, "type": "Feature", "properties": {"codeIataAirport": "BAO", "airportId": 533}}, {"geometry": {"type": "Point", "coordinates": [-74.77618, 10.886398]}, "type": "Feature", "properties": {"codeIataAirport": "BAQ", "airportId": 534}}, {"geometry": {"type": "Point", "coordinates": [-133.6, 55.333332]}, "type": "Feature", "properties": {"codeIataAirport": "BAR", "airportId": 535}}, {"geometry": {"type": "Point", "coordinates": [155.88333, -6.983333]}, "type": "Feature", "properties": {"codeIataAirport": "BAS", "airportId": 536}}, {"geometry": {"type": "Point", "coordinates": [-48.55, -20.55]}, "type": "Feature", "properties": {"codeIataAirport": "BAT", "airportId": 537}}, {"geometry": {"type": "Point", "coordinates": [-49.0525, -22.343056]}, "type": "Feature", "properties": {"codeIataAirport": "BAU", "airportId": 538}}, {"geometry": {"type": "Point", "coordinates": [110.0009, 40.563328]}, "type": "Feature", "properties": {"codeIataAirport": "BAV", "airportId": 539}}, {"geometry": {"type": "Point", "coordinates": [146.35, -0.666667]}, "type": "Feature", "properties": {"codeIataAirport": "BAW", "airportId": 540}}, {"geometry": {"type": "Point", "coordinates": [83.547646, 53.361088]}, "type": "Feature", "properties": {"codeIataAirport": "BAX", "airportId": 541}}, {"geometry": {"type": "Point", "coordinates": [23.466667, 47.65]}, "type": "Feature", "properties": {"codeIataAirport": "BAY", "airportId": 542}}, {"geometry": {"type": "Point", "coordinates": [-62.933613, -0.966944]}, "type": "Feature", "properties": {"codeIataAirport": "BAZ", "airportId": 543}}, {"geometry": {"type": "Point", "coordinates": [-71.695, -45.916668]}, "type": "Feature", "properties": {"codeIataAirport": "BBA", "airportId": 544}}, {"geometry": {"type": "Point", "coordinates": [-95.6, 45.316666]}, "type": "Feature", "properties": {"codeIataAirport": "BBB", "airportId": 545}}, {"geometry": {"type": "Point", "coordinates": [-95.96667, 28.983334]}, "type": "Feature", "properties": {"codeIataAirport": "BBC", "airportId": 546}}, {"geometry": {"type": "Point", "coordinates": [-99.333336, 31.133333]}, "type": "Feature", "properties": {"codeIataAirport": "BBD", "airportId": 547}}, {"geometry": {"type": "Point", "coordinates": [-71.183334, 42.5]}, "type": "Feature", "properties": {"codeIataAirport": "BBF", "airportId": 548}}, {"geometry": {"type": "Point", "coordinates": [172.75, 3.166667]}, "type": "Feature", "properties": {"codeIataAirport": "BBG", "airportId": 549}}, {"geometry": {"type": "Point", "coordinates": [12.711667, 54.33972]}, "type": "Feature", "properties": {"codeIataAirport": "BBH", "airportId": 550}}, {"geometry": {"type": "Point", "coordinates": [85.81738, 20.252853]}, "type": "Feature", "properties": {"codeIataAirport": "BBI", "airportId": 551}}, {"geometry": {"type": "Point", "coordinates": [6.516667, 49.966667]}, "type": "Feature", "properties": {"codeIataAirport": "BBJ", "airportId": 552}}, {"geometry": {"type": "Point", "coordinates": [25.15, -17.816668]}, "type": "Feature", "properties": {"codeIataAirport": "BBK", "airportId": 553}}, {"geometry": {"type": "Point", "coordinates": [103.2, 13.116667]}, "type": "Feature", "properties": {"codeIataAirport": "BBM", "airportId": 554}}, {"geometry": {"type": "Point", "coordinates": [115.46667, 3.683333]}, "type": "Feature", "properties": {"codeIataAirport": "BBN", "airportId": 555}}, {"geometry": {"type": "Point", "coordinates": [45.00639, 10.419444]}, "type": "Feature", "properties": {"codeIataAirport": "BBO", "airportId": 556}}, {"geometry": {"type": "Point", "coordinates": [-1.083333, 50.683334]}, "type": "Feature", "properties": {"codeIataAirport": "BBP", "airportId": 557}}, {"geometry": {"type": "Point", "coordinates": [-61.765, 17.555555]}, "type": "Feature", "properties": {"codeIataAirport": "BBQ", "airportId": 558}}, {"geometry": {"type": "Point", "coordinates": [-61.739445, 16.01639]}, "type": "Feature", "properties": {"codeIataAirport": "BBR", "airportId": 559}}, {"geometry": {"type": "Point", "coordinates": [-0.85, 51.333332]}, "type": "Feature", "properties": {"codeIataAirport": "BBS", "airportId": 560}}, {"geometry": {"type": "Point", "coordinates": [15.788056, 4.219167]}, "type": "Feature", "properties": {"codeIataAirport": "BBT", "airportId": 561}}, {"geometry": {"type": "Point", "coordinates": [26.080996, 44.495934]}, "type": "Feature", "properties": {"codeIataAirport": "BBU", "airportId": 562}}, {"geometry": {"type": "Point", "coordinates": [-6.95, 4.666667]}, "type": "Feature", "properties": {"codeIataAirport": "BBV", "airportId": 563}}, {"geometry": {"type": "Point", "coordinates": [-99.63333, 41.4]}, "type": "Feature", "properties": {"codeIataAirport": "BBW", "airportId": 564}}, {"geometry": {"type": "Point", "coordinates": [-75.2675, 40.136665]}, "type": "Feature", "properties": {"codeIataAirport": "BBX", "airportId": 565}}, {"geometry": {"type": "Point", "coordinates": [20.649721, 5.845833]}, "type": "Feature", "properties": {"codeIataAirport": "BBY", "airportId": 566}}, {"geometry": {"type": "Point", "coordinates": [23.11, -13.537222]}, "type": "Feature", "properties": {"codeIataAirport": "BBZ", "airportId": 567}}, {"geometry": {"type": "Point", "coordinates": [-74.5, 20.35]}, "type": "Feature", "properties": {"codeIataAirport": "BCA", "airportId": 568}}, {"geometry": {"type": "Point", "coordinates": [-80.416664, 37.233334]}, "type": "Feature", "properties": {"codeIataAirport": "BCB", "airportId": 569}}, {"geometry": {"type": "Point", "coordinates": [-109.1, 45.183334]}, "type": "Feature", "properties": {"codeIataAirport": "BCC", "airportId": 570}}, {"geometry": {"type": "Point", "coordinates": [122.93359, 10.644815]}, "type": "Feature", "properties": {"codeIataAirport": "BCD", "airportId": 571}}, {"geometry": {"type": "Point", "coordinates": [-112.13528, 37.70111]}, "type": "Feature", "properties": {"codeIataAirport": "BCE", "airportId": 572}}, {"geometry": {"type": "Point", "coordinates": [18.416668, 6.75]}, "type": "Feature", "properties": {"codeIataAirport": "BCF", "airportId": 573}}, {"geometry": {"type": "Point", "coordinates": [-58.55, 6.55]}, "type": "Feature", "properties": {"codeIataAirport": "BCG", "airportId": 574}}, {"geometry": {"type": "Point", "coordinates": [126.39972, -8.491667]}, "type": "Feature", "properties": {"codeIataAirport": "BCH", "airportId": 575}}, {"geometry": {"type": "Point", "coordinates": [145.30194, -23.559168]}, "type": "Feature", "properties": {"codeIataAirport": "BCI", "airportId": 576}}, {"geometry": {"type": "Point", "coordinates": [144.16667, -17.4]}, "type": "Feature", "properties": {"codeIataAirport": "BCK", "airportId": 577}}, {"geometry": {"type": "Point", "coordinates": [-82.96667, 10.833333]}, "type": "Feature", "properties": {"codeIataAirport": "BCL", "airportId": 578}}, {"geometry": {"type": "Point", "coordinates": [26.881945, 46.59861]}, "type": "Feature", "properties": {"codeIataAirport": "BCM", "airportId": 579}}, {"geometry": {"type": "Point", "coordinates": [2.07593, 41.30303]}, "type": "Feature", "properties": {"codeIataAirport": "BCN", "airportId": 580}}, {"geometry": {"type": "Point", "coordinates": [36.55, 5.783333]}, "type": "Feature", "properties": {"codeIataAirport": "BCO", "airportId": 581}}, {"geometry": {"type": "Point", "coordinates": [146.48334, -5.85]}, "type": "Feature", "properties": {"codeIataAirport": "BCP", "airportId": 582}}, {"geometry": {"type": "Point", "coordinates": [14.216667, 27.683332]}, "type": "Feature", "properties": {"codeIataAirport": "BCQ", "airportId": 583}}, {"geometry": {"type": "Point", "coordinates": [-67.38333, -8.75]}, "type": "Feature", "properties": {"codeIataAirport": "BCR", "airportId": 584}}, {"geometry": {"type": "Point", "coordinates": [-90.0, 29.966667]}, "type": "Feature", "properties": {"codeIataAirport": "BCS", "airportId": 585}}, {"geometry": {"type": "Point", "coordinates": [-80.083336, 26.35]}, "type": "Feature", "properties": {"codeIataAirport": "BCT", "airportId": 586}}, {"geometry": {"type": "Point", "coordinates": [9.8, 10.366667]}, "type": "Feature", "properties": {"codeIataAirport": "BCU", "airportId": 587}}, {"geometry": {"type": "Point", "coordinates": [-88.78333, 17.266666]}, "type": "Feature", "properties": {"codeIataAirport": "BCV", "airportId": 588}}, {"geometry": {"type": "Point", "coordinates": [35.425, -21.884722]}, "type": "Feature", "properties": {"codeIataAirport": "BCW", "airportId": 589}}, {"geometry": {"type": "Point", "coordinates": [58.333332, 53.933334]}, "type": "Feature", "properties": {"codeIataAirport": "BCX", "airportId": 590}}, {"geometry": {"type": "Point", "coordinates": [36.666668, 6.216667]}, "type": "Feature", "properties": {"codeIataAirport": "BCY", "airportId": 591}}, {"geometry": {"type": "Point", "coordinates": [137.8, -13.783333]}, "type": "Feature", "properties": {"codeIataAirport": "BCZ", "airportId": 592}}, {"geometry": {"type": "Point", "coordinates": [-64.70115, 32.35994]}, "type": "Feature", "properties": {"codeIataAirport": "BDA", "airportId": 593}}, {"geometry": {"type": "Point", "coordinates": [152.32187, -24.898708]}, "type": "Feature", "properties": {"codeIataAirport": "BDB", "airportId": 594}}, {"geometry": {"type": "Point", "coordinates": [-45.266666, -5.466667]}, "type": "Feature", "properties": {"codeIataAirport": "BDC", "airportId": 595}}, {"geometry": {"type": "Point", "coordinates": [142.17166, -10.148655]}, "type": "Feature", "properties": {"codeIataAirport": "BDD", "airportId": 596}}, {"geometry": {"type": "Point", "coordinates": [-94.60694, 48.72278]}, "type": "Feature", "properties": {"codeIataAirport": "BDE", "airportId": 597}}, {"geometry": {"type": "Point", "coordinates": [-89.65, 41.183334]}, "type": "Feature", "properties": {"codeIataAirport": "BDF", "airportId": 598}}, {"geometry": {"type": "Point", "coordinates": [-109.48333, 37.61667]}, "type": "Feature", "properties": {"codeIataAirport": "BDG", "airportId": 599}}, {"geometry": {"type": "Point", "coordinates": [54.829147, 26.529486]}, "type": "Feature", "properties": {"codeIataAirport": "BDH", "airportId": 600}}, {"geometry": {"type": "Point", "coordinates": [55.216667, -3.716667]}, "type": "Feature", "properties": {"codeIataAirport": "BDI", "airportId": 601}}, {"geometry": {"type": "Point", "coordinates": [114.75425, -3.43804]}, "type": "Feature", "properties": {"codeIataAirport": "BDJ", "airportId": 602}}, {"geometry": {"type": "Point", "coordinates": [-2.8, 8.033333]}, "type": "Feature", "properties": {"codeIataAirport": "BDK", "airportId": 603}}, {"geometry": {"type": "Point", "coordinates": [-72.6847, 41.92953]}, "type": "Feature", "properties": {"codeIataAirport": "BDL", "airportId": 604}}, {"geometry": {"type": "Point", "coordinates": [27.977222, 40.318333]}, "type": "Feature", "properties": {"codeIataAirport": "BDM", "airportId": 605}}, {"geometry": {"type": "Point", "coordinates": [68.9, 24.633333]}, "type": "Feature", "properties": {"codeIataAirport": "BDN", "airportId": 606}}, {"geometry": {"type": "Point", "coordinates": [107.58178, -6.904648]}, "type": "Feature", "properties": {"codeIataAirport": "BDO", "airportId": 607}}, {"geometry": {"type": "Point", "coordinates": [88.083336, 26.533333]}, "type": "Feature", "properties": {"codeIataAirport": "BDP", "airportId": 608}}, {"geometry": {"type": "Point", "coordinates": [73.2157, 22.329077]}, "type": "Feature", "properties": {"codeIataAirport": "BDQ", "airportId": 609}}, {"geometry": {"type": "Point", "coordinates": [-73.12444, 41.164165]}, "type": "Feature", "properties": {"codeIataAirport": "BDR", "airportId": 610}}, {"geometry": {"type": "Point", "coordinates": [17.939053, 40.657993]}, "type": "Feature", "properties": {"codeIataAirport": "BDS", "airportId": 611}}, {"geometry": {"type": "Point", "coordinates": [22.45, 4.083333]}, "type": "Feature", "properties": {"codeIataAirport": "BDT", "airportId": 612}}, {"geometry": {"type": "Point", "coordinates": [18.54, 69.056114]}, "type": "Feature", "properties": {"codeIataAirport": "BDU", "airportId": 613}}, {"geometry": {"type": "Point", "coordinates": [29.8, -7.0]}, "type": "Feature", "properties": {"codeIataAirport": "BDV", "airportId": 614}}, {"geometry": {"type": "Point", "coordinates": [127.46667, -17.3]}, "type": "Feature", "properties": {"codeIataAirport": "BDW", "airportId": 615}}, {"geometry": {"type": "Point", "coordinates": [-105.36667, 45.466667]}, "type": "Feature", "properties": {"codeIataAirport": "BDX", "airportId": 616}}, {"geometry": {"type": "Point", "coordinates": [-124.416664, 43.11667]}, "type": "Feature", "properties": {"codeIataAirport": "BDY", "airportId": 617}}, {"geometry": {"type": "Point", "coordinates": [146.95, -6.333333]}, "type": "Feature", "properties": {"codeIataAirport": "BDZ", "airportId": 618}}, {"geometry": {"type": "Point", "coordinates": [-7.376028, 57.473415]}, "type": "Feature", "properties": {"codeIataAirport": "BEB", "airportId": 619}}, {"geometry": {"type": "Point", "coordinates": [-97.333336, 37.683334]}, "type": "Feature", "properties": {"codeIataAirport": "BEC", "airportId": 620}}, {"geometry": {"type": "Point", "coordinates": [-71.29, 42.470833]}, "type": "Feature", "properties": {"codeIataAirport": "BED", "airportId": 621}}, {"geometry": {"type": "Point", "coordinates": [122.666664, -16.966667]}, "type": "Feature", "properties": {"codeIataAirport": "BEE", "airportId": 622}}, {"geometry": {"type": "Point", "coordinates": [-83.76861, 11.996944]}, "type": "Feature", "properties": {"codeIataAirport": "BEF", "airportId": 623}}, {"geometry": {"type": "Point", "coordinates": [20.306944, 44.819443]}, "type": "Feature", "properties": {"codeIataAirport": "BEG", "airportId": 624}}, {"geometry": {"type": "Point", "coordinates": [-86.42833, 42.127777]}, "type": "Feature", "properties": {"codeIataAirport": "BEH", "airportId": 625}}, {"geometry": {"type": "Point", "coordinates": [34.533333, 9.391667]}, "type": "Feature", "properties": {"codeIataAirport": "BEI", "airportId": 626}}, {"geometry": {"type": "Point", "coordinates": [117.7, 2.166667]}, "type": "Feature", "properties": {"codeIataAirport": "BEJ", "airportId": 627}}, {"geometry": {"type": "Point", "coordinates": [81.23333, 26.216667]}, "type": "Feature", "properties": {"codeIataAirport": "BEK", "airportId": 628}}, {"geometry": {"type": "Point", "coordinates": [-48.480003, -1.389865]}, "type": "Feature", "properties": {"codeIataAirport": "BEL", "airportId": 629}}, {"geometry": {"type": "Point", "coordinates": [20.26489, 32.085423]}, "type": "Feature", "properties": {"codeIataAirport": "BEN", "airportId": 630}}, {"geometry": {"type": "Point", "coordinates": [151.66667, -33.033333]}, "type": "Feature", "properties": {"codeIataAirport": "BEO", "airportId": 631}}, {"geometry": {"type": "Point", "coordinates": [76.9, 15.183333]}, "type": "Feature", "properties": {"codeIataAirport": "BEP", "airportId": 632}}, {"geometry": {"type": "Point", "coordinates": [0.766667, 52.35]}, "type": "Feature", "properties": {"codeIataAirport": "BEQ", "airportId": 633}}, {"geometry": {"type": "Point", "coordinates": [-4.415827, 48.445374]}, "type": "Feature", "properties": {"codeIataAirport": "BES", "airportId": 634}}, {"geometry": {"type": "Point", "coordinates": [-161.83139, 60.784443]}, "type": "Feature", "properties": {"codeIataAirport": "BET", "airportId": 635}}, {"geometry": {"type": "Point", "coordinates": [139.445, -24.23]}, "type": "Feature", "properties": {"codeIataAirport": "BEU", "airportId": 636}}, {"geometry": {"type": "Point", "coordinates": [34.8, 31.25]}, "type": "Feature", "properties": {"codeIataAirport": "BEV", "airportId": 637}}, {"geometry": {"type": "Point", "coordinates": [34.90192, -19.798805]}, "type": "Feature", "properties": {"codeIataAirport": "BEW", "airportId": 638}}, {"geometry": {"type": "Point", "coordinates": [-1.083333, 51.63333]}, "type": "Feature", "properties": {"codeIataAirport": "BEX", "airportId": 639}}, {"geometry": {"type": "Point", "coordinates": [35.49308, 33.826073]}, "type": "Feature", "properties": {"codeIataAirport": "BEY", "airportId": 640}}, {"geometry": {"type": "Point", "coordinates": [176.0, -1.333333]}, "type": "Feature", "properties": {"codeIataAirport": "BEZ", "airportId": 641}}, {"geometry": {"type": "Point", "coordinates": [-58.170277, -20.232779]}, "type": "Feature", "properties": {"codeIataAirport": "BFA", "airportId": 642}}, {"geometry": {"type": "Point", "coordinates": [-152.13333, 58.183334]}, "type": "Feature", "properties": {"codeIataAirport": "BFB", "airportId": 643}}, {"geometry": {"type": "Point", "coordinates": [145.33333, -15.9]}, "type": "Feature", "properties": {"codeIataAirport": "BFC", "airportId": 644}}, {"geometry": {"type": "Point", "coordinates": [-78.63944, 41.802223]}, "type": "Feature", "properties": {"codeIataAirport": "BFD", "airportId": 645}}, {"geometry": {"type": "Point", "coordinates": [8.55, 52.016666]}, "type": "Feature", "properties": {"codeIataAirport": "BFE", "airportId": 646}}, {"geometry": {"type": "Point", "coordinates": [-103.60111, 41.87528]}, "type": "Feature", "properties": {"codeIataAirport": "BFF", "airportId": 647}}, {"geometry": {"type": "Point", "coordinates": [-110.71333, 37.545834]}, "type": "Feature", "properties": {"codeIataAirport": "BFG", "airportId": 648}}, {"geometry": {"type": "Point", "coordinates": [-49.23389, -25.4025]}, "type": "Feature", "properties": {"codeIataAirport": "BFH", "airportId": 649}}, {"geometry": {"type": "Point", "coordinates": [-122.3037, 47.5371]}, "type": "Feature", "properties": {"codeIataAirport": "BFI", "airportId": 650}}, {"geometry": {"type": "Point", "coordinates": [-104.86667, 39.733334]}, "type": "Feature", "properties": {"codeIataAirport": "BFK", "airportId": 651}}, {"geometry": {"type": "Point", "coordinates": [-119.04533, 35.429626]}, "type": "Feature", "properties": {"codeIataAirport": "BFL", "airportId": 652}}, {"geometry": {"type": "Point", "coordinates": [-88.23333, 30.683332]}, "type": "Feature", "properties": {"codeIataAirport": "BFM", "airportId": 653}}, {"geometry": {"type": "Point", "coordinates": [26.297516, -29.095854]}, "type": "Feature", "properties": {"codeIataAirport": "BFN", "airportId": 654}}, {"geometry": {"type": "Point", "coordinates": [31.579166, -21.009167]}, "type": "Feature", "properties": {"codeIataAirport": "BFO", "airportId": 655}}, {"geometry": {"type": "Point", "coordinates": [-80.4, 40.766666]}, "type": "Feature", "properties": {"codeIataAirport": "BFP", "airportId": 656}}, {"geometry": {"type": "Point", "coordinates": [-78.166664, 7.583333]}, "type": "Feature", "properties": {"codeIataAirport": "BFQ", "airportId": 657}}, {"geometry": {"type": "Point", "coordinates": [-86.48333, 38.86667]}, "type": "Feature", "properties": {"codeIataAirport": "BFR", "airportId": 658}}, {"geometry": {"type": "Point", "coordinates": [-6.217616, 54.662395]}, "type": "Feature", "properties": {"codeIataAirport": "BFS", "airportId": 659}}, {"geometry": {"type": "Point", "coordinates": [-80.635, 32.41083]}, "type": "Feature", "properties": {"codeIataAirport": "BFT", "airportId": 660}}, {"geometry": {"type": "Point", "coordinates": [117.333336, 32.95]}, "type": "Feature", "properties": {"codeIataAirport": "BFU", "airportId": 661}}, {"geometry": {"type": "Point", "coordinates": [103.25528, 15.226944]}, "type": "Feature", "properties": {"codeIataAirport": "BFV", "airportId": 662}}, {"geometry": {"type": "Point", "coordinates": [-0.589444, 35.171665]}, "type": "Feature", "properties": {"codeIataAirport": "BFW", "airportId": 663}}, {"geometry": {"type": "Point", "coordinates": [10.4, 5.483333]}, "type": "Feature", "properties": {"codeIataAirport": "BFX", "airportId": 664}}, {"geometry": {"type": "Point", "coordinates": [-73.1814, 7.128045]}, "type": "Feature", "properties": {"codeIataAirport": "BGA", "airportId": 665}}, {"geometry": {"type": "Point", "coordinates": [11.938889, -0.106667]}, "type": "Feature", "properties": {"codeIataAirport": "BGB", "airportId": 666}}, {"geometry": {"type": "Point", "coordinates": [-6.75, 41.816666]}, "type": "Feature", "properties": {"codeIataAirport": "BGC", "airportId": 667}}, {"geometry": {"type": "Point", "coordinates": [-101.4, 35.65]}, "type": "Feature", "properties": {"codeIataAirport": "BGD", "airportId": 668}}, {"geometry": {"type": "Point", "coordinates": [-84.583336, 30.916668]}, "type": "Feature", "properties": {"codeIataAirport": "BGE", "airportId": 669}}, {"geometry": {"type": "Point", "coordinates": [18.520279, 4.396111]},